{
"type": "FeatureCollection",
"name": "dqzd",
"crs": { "type": "name", "properties": { "name": "urn:ogc:def:crs:OGC:1.3:CRS84" } },
"features": [
{ "type": "Feature", "properties": { "area": "耀州区", "positionname": "锦阳小学", "stationcode": "610204052", "latitude": "34.9239", "longitude": "108.9644", "stationattri": 1.0, "unifiedcode": null, "unifiedcode_p": 610200000000.0, "ctime": null, "ptype": 1.0 }, "geometry": { "type": "Point", "coordinates": [ 108.9644, 34.9239 ] } },
{ "type": "Feature", "properties": { "area": "宝鸡高新区", "positionname": "健康城", "stationcode": "610301051", "latitude": "34.3253", "longitude": "107.2372", "stationattri": 1.0, "unifiedcode": null, "unifiedcode_p": 610300000000.0, "ctime": null, "ptype": 1.0 }, "geometry": { "type": "Point", "coordinates": [ 107.2372, 34.3253 ] } },
{ "type": "Feature", "properties": { "area": "凤翔县", "positionname": "凤翔县环保局", "stationcode": "610322051", "latitude": "34.515", "longitude": "107.3936111", "stationattri": 1.0, "unifiedcode": 610322000000.0, "unifiedcode_p": 610300000000.0, "ctime": null, "ptype": 1.0 }, "geometry": { "type": "Point", "coordinates": [ 107.3936111, 34.515 ] } },
{ "type": "Feature", "properties": { "area": "咸阳市", "positionname": "咸阳市气象站(对照点)", "stationcode": "610400001", "latitude": "34.39555556", "longitude": "108.7197222", "stationattri": 0.0, "unifiedcode": null, "unifiedcode_p": 610400000000.0, "ctime": null, "ptype": 0.0 }, "geometry": { "type": "Point", "coordinates": [ 108.7197222, 34.39555556 ] } },
{ "type": "Feature", "properties": { "area": "永寿县", "positionname": "永寿中学", "stationcode": "610426052", "latitude": "34.688209", "longitude": "108.1383", "stationattri": 1.0, "unifiedcode": 610426000000.0, "unifiedcode_p": 610400000000.0, "ctime": null, "ptype": 1.0 }, "geometry": { "type": "Point", "coordinates": [ 108.1383, 34.688209 ] } },
{ "type": "Feature", "properties": { "area": "淳化县", "positionname": "淳化县政府", "stationcode": "610430051", "latitude": "34.80055556", "longitude": "108.575", "stationattri": 1.0, "unifiedcode": 610430000000.0, "unifiedcode_p": 610400000000.0, "ctime": null, "ptype": 1.0 }, "geometry": { "type": "Point", "coordinates": [ 108.575, 34.80055556 ] } },
{ "type": "Feature", "properties": { "area": "大荔县", "positionname": "大荔县城管局", "stationcode": "610523051", "latitude": "34.79111111", "longitude": "109.9461111", "stationattri": 1.0, "unifiedcode": 610523000000.0, "unifiedcode_p": 610500000000.0, "ctime": null, "ptype": 1.0 }, "geometry": { "type": "Point", "coordinates": [ 109.9461111, 34.79111111 ] } },
{ "type": "Feature", "properties": { "area": "吴起县", "positionname": "长征广场", "stationcode": "610626052", "latitude": "36.925058", "longitude": "108.169881", "stationattri": 1.0, "unifiedcode": 610626000000.0, "unifiedcode_p": 610600000000.0, "ctime": null, "ptype": 1.0 }, "geometry": { "type": "Point", "coordinates": [ 108.169881, 36.925058 ] } },
{ "type": "Feature", "properties": { "area": "城固县", "positionname": "城固县政府", "stationcode": "610722051", "latitude": "33.15944444", "longitude": "107.3280556", "stationattri": 1.0, "unifiedcode": 610722000000.0, "unifiedcode_p": 610700000000.0, "ctime": null, "ptype": 1.0 }, "geometry": { "type": "Point", "coordinates": [ 107.3280556, 33.15944444 ] } },
{ "type": "Feature", "properties": { "area": "洋县", "positionname": "书院中学", "stationcode": "610723052", "latitude": "33.229447", "longitude": "107.562491", "stationattri": 1.0, "unifiedcode": 610723000000.0, "unifiedcode_p": 610700000000.0, "ctime": null, "ptype": 1.0 }, "geometry": { "type": "Point", "coordinates": [ 107.562491, 33.229447 ] } },
{ "type": "Feature", "properties": { "area": "榆林市", "positionname": "环保监测大楼", "stationcode": "610800403", "latitude": "38.24777778", "longitude": "109.7336111", "stationattri": 0.0, "unifiedcode": null, "unifiedcode_p": 610800000000.0, "ctime": null, "ptype": 0.0 }, "geometry": { "type": "Point", "coordinates": [ 109.7336111, 38.24777778 ] } },
{ "type": "Feature", "properties": { "area": "镇坪县", "positionname": "镇坪县医院", "stationcode": "610927051", "latitude": "31.884", "longitude": "109.524911", "stationattri": 1.0, "unifiedcode": null, "unifiedcode_p": 610900000000.0, "ctime": null, "ptype": 1.0 }, "geometry": { "type": "Point", "coordinates": [ 109.524911, 31.884 ] } },
{ "type": "Feature", "properties": { "area": "凤翔县", "positionname": "竹园沟", "stationcode": "610322053", "latitude": "34.5197", "longitude": "107.4036", "stationattri": 1.0, "unifiedcode": null, "unifiedcode_p": 610300000000.0, "ctime": null, "ptype": 1.0 }, "geometry": { "type": "Point", "coordinates": [ 107.4036, 34.5197 ] } },
{ "type": "Feature", "properties": { "area": "麟游县", "positionname": "虢镇初中", "stationcode": "610329051", "latitude": "34.67527778", "longitude": "107.7919444", "stationattri": 1.0, "unifiedcode": 610329000000.0, "unifiedcode_p": 610300000000.0, "ctime": null, "ptype": 1.0 }, "geometry": { "type": "Point", "coordinates": [ 107.7919444, 34.67527778 ] } },
{ "type": "Feature", "properties": { "area": "咸阳市", "positionname": "千阳县环保局", "stationcode": "610400054", "latitude": "34.36166667", "longitude": "108.7233333", "stationattri": 0.0, "unifiedcode": null, "unifiedcode_p": 610400000000.0, "ctime": null, "ptype": 0.0 }, "geometry": { "type": "Point", "coordinates": [ 108.7233333, 34.36166667 ] } },
{ "type": "Feature", "properties": { "area": "秦都区", "positionname": "兴平市环保局", "stationcode": "610402057", "latitude": "34.34833", "longitude": "108.686523", "stationattri": 1.0, "unifiedcode": 610402000000.0, "unifiedcode_p": 610400000000.0, "ctime": null, "ptype": 1.0 }, "geometry": { "type": "Point", "coordinates": [ 108.686523, 34.34833 ] } },
{ "type": "Feature", "properties": { "area": "永寿县", "positionname": "彬州市政府", "stationcode": "610426051", "latitude": "34.69305556", "longitude": "108.1366667", "stationattri": 1.0, "unifiedcode": 610426000000.0, "unifiedcode_p": 610400000000.0, "ctime": null, "ptype": 1.0 }, "geometry": { "type": "Point", "coordinates": [ 108.1366667, 34.69305556 ] } },
{ "type": "Feature", "properties": { "area": "渭南市", "positionname": "礼泉县环保局", "stationcode": "610500052", "latitude": "34.49305556", "longitude": "109.4636111", "stationattri": 0.0, "unifiedcode": null, "unifiedcode_p": 610500000000.0, "ctime": null, "ptype": 0.0 }, "geometry": { "type": "Point", "coordinates": [ 109.4636111, 34.49305556 ] } },
{ "type": "Feature", "properties": { "area": "华州区", "positionname": "康复医院", "stationcode": "610521051", "latitude": "34.49944444", "longitude": "109.7708333", "stationattri": 1.0, "unifiedcode": null, "unifiedcode_p": 610500000000.0, "ctime": null, "ptype": 1.0 }, "geometry": { "type": "Point", "coordinates": [ 109.7708333, 34.49944444 ] } },
{ "type": "Feature", "properties": { "area": "富平县", "positionname": "西城街办", "stationcode": "610528052", "latitude": "34.768837", "longitude": "109.173888", "stationattri": 1.0, "unifiedcode": 610528000000.0, "unifiedcode_p": 610500000000.0, "ctime": null, "ptype": 1.0 }, "geometry": { "type": "Point", "coordinates": [ 109.173888, 34.768837 ] } },
{ "type": "Feature", "properties": { "area": "延长县", "positionname": "合阳县人大", "stationcode": "610621051", "latitude": "36.57611111", "longitude": "110.0005556", "stationattri": 1.0, "unifiedcode": 610621000000.0, "unifiedcode_p": 610600000000.0, "ctime": null, "ptype": 1.0 }, "geometry": { "type": "Point", "coordinates": [ 110.0005556, 36.57611111 ] } },
{ "type": "Feature", "properties": { "area": "吴起县", "positionname": "怀德大街站", "stationcode": "610626051", "latitude": "36.89611111", "longitude": "108.1936111", "stationattri": 1.0, "unifiedcode": 610626000000.0, "unifiedcode_p": 610600000000.0, "ctime": null, "ptype": 1.0 }, "geometry": { "type": "Point", "coordinates": [ 108.1936111, 36.89611111 ] } },
{ "type": "Feature", "properties": { "area": "黄陵县", "positionname": "齐家湾中学", "stationcode": "610632051", "latitude": "35.58388889", "longitude": "109.2438889", "stationattri": 1.0, "unifiedcode": 610632000000.0, "unifiedcode_p": 610600000000.0, "ctime": null, "ptype": 1.0 }, "geometry": { "type": "Point", "coordinates": [ 109.2438889, 35.58388889 ] } },
{ "type": "Feature", "properties": { "area": "宁强县", "positionname": "汉川机床厂子校(对照点)", "stationcode": "610726051", "latitude": "32.83194444", "longitude": "106.2530556", "stationattri": 1.0, "unifiedcode": 610726000000.0, "unifiedcode_p": 610700000000.0, "ctime": null, "ptype": 1.0 }, "geometry": { "type": "Point", "coordinates": [ 106.2530556, 32.83194444 ] } },
{ "type": "Feature", "properties": { "area": "佛坪县", "positionname": "南郑县党校", "stationcode": "610730052", "latitude": "33.51222222", "longitude": "107.9822222", "stationattri": 1.0, "unifiedcode": 610730000000.0, "unifiedcode_p": 610700000000.0, "ctime": null, "ptype": 1.0 }, "geometry": { "type": "Point", "coordinates": [ 107.9822222, 33.51222222 ] } },
{ "type": "Feature", "properties": { "area": "横山县", "positionname": "宁强县政府", "stationcode": "610823051", "latitude": "37.96138889", "longitude": "109.2894444", "stationattri": 1.0, "unifiedcode": 610803000000.0, "unifiedcode_p": 610800000000.0, "ctime": null, "ptype": 1.0 }, "geometry": { "type": "Point", "coordinates": [ 109.2894444, 37.96138889 ] } },
{ "type": "Feature", "properties": { "area": "吴堡县", "positionname": "佛坪县黄家湾路", "stationcode": "610829051", "latitude": "37.458405", "longitude": "110.746127", "stationattri": 1.0, "unifiedcode": 610829000000.0, "unifiedcode_p": 610800000000.0, "ctime": null, "ptype": 1.0 }, "geometry": { "type": "Point", "coordinates": [ 110.746127, 37.458405 ] } },
{ "type": "Feature", "properties": { "area": "安康市", "positionname": "横山县政府", "stationcode": "610900402", "latitude": "32.697725", "longitude": "109.040292", "stationattri": 0.0, "unifiedcode": null, "unifiedcode_p": 610900000000.0, "ctime": null, "ptype": 0.0 }, "geometry": { "type": "Point", "coordinates": [ 109.040292, 32.697725 ] } },
{ "type": "Feature", "properties": { "area": "平利县", "positionname": "吴堡县政府", "stationcode": "610926051", "latitude": "32.390542", "longitude": "109.368694", "stationattri": 1.0, "unifiedcode": 610926000000.0, "unifiedcode_p": 610900000000.0, "ctime": null, "ptype": 1.0 }, "geometry": { "type": "Point", "coordinates": [ 109.368694, 32.390542 ] } },
{ "type": "Feature", "properties": { "area": "丹凤县", "positionname": "安康市监测站", "stationcode": "611022051", "latitude": "33.702468", "longitude": "110.3219444", "stationattri": 1.0, "unifiedcode": 611022000000.0, "unifiedcode_p": 611000000000.0, "ctime": null, "ptype": 1.0 }, "geometry": { "type": "Point", "coordinates": [ 110.3219444, 33.702468 ] } },
{ "type": "Feature", "properties": { "area": "商南县", "positionname": "石泉县石泉中学", "stationcode": "611023052", "latitude": "33.51944", "longitude": "110.88694", "stationattri": 1.0, "unifiedcode": 611023000000.0, "unifiedcode_p": 611000000000.0, "ctime": null, "ptype": 1.0 }, "geometry": { "type": "Point", "coordinates": [ 110.88694, 33.51944 ] } },
{ "type": "Feature", "properties": { "area": "泾河新城", "positionname": "第一小学", "stationcode": "610423051", "latitude": "34.5325", "longitude": "108.8352778", "stationattri": 1.0, "unifiedcode": 618000000000.0, "unifiedcode_p": 610100000000.0, "ctime": null, "ptype": 1.0 }, "geometry": { "type": "Point", "coordinates": [ 108.8352778, 34.5325 ] } },
{ "type": "Feature", "properties": { "area": "新城区", "positionname": "商南县城市展馆", "stationcode": "1058C", "latitude": "34.28001731", "longitude": "109.0049749", "stationattri": 8.0, "unifiedcode": 610102000000.0, "unifiedcode_p": 610100000000.0, "ctime": null, "ptype": 8.0 }, "geometry": { "type": "Point", "coordinates": [ 109.0049749, 34.28001731 ] } },
{ "type": "Feature", "properties": { "area": "碑林区", "positionname": "南湖幼儿园", "stationcode": "1186C", "latitude": "34.25022015", "longitude": "108.9241193", "stationattri": 8.0, "unifiedcode": 610103000000.0, "unifiedcode_p": 610100000000.0, "ctime": null, "ptype": 8.0 }, "geometry": { "type": "Point", "coordinates": [ 108.9241193, 34.25022015 ] } },
{ "type": "Feature", "properties": { "area": "山阳县", "positionname": "山阳县职教中心", "stationcode": "611024051", "latitude": "33.52833333", "longitude": "109.8994444", "stationattri": 1.0, "unifiedcode": 611024000000.0, "unifiedcode_p": 611000000000.0, "ctime": null, "ptype": 1.0 }, "geometry": { "type": "Point", "coordinates": [ 109.8994444, 33.52833333 ] } },
{ "type": "Feature", "properties": { "area": "秦汉新城", "positionname": "南位镇", "stationcode": "617003052", "latitude": "34.359694", "longitude": "108.531583", "stationattri": 1.0, "unifiedcode": 618000000000.0, "unifiedcode_p": 610100000000.0, "ctime": null, "ptype": 1.0 }, "geometry": { "type": "Point", "coordinates": [ 108.531583, 34.359694 ] } },
{ "type": "Feature", "properties": { "area": "西咸新区", "positionname": "智慧农业园", "stationcode": "610000057", "latitude": "34.5230555", "longitude": "108.8519444", "stationattri": 1.0, "unifiedcode": 618000000000.0, "unifiedcode_p": 610100000000.0, "ctime": null, "ptype": 1.0 }, "geometry": { "type": "Point", "coordinates": [ 108.8519444, 34.5230555 ] } },
{ "type": "Feature", "properties": { "area": "新城区", "positionname": "长乐中路街办", "stationcode": "1173C", "latitude": "34.26193713", "longitude": "108.9982981", "stationattri": 8.0, "unifiedcode": 610102000000.0, "unifiedcode_p": 610100000000.0, "ctime": null, "ptype": 8.0 }, "geometry": { "type": "Point", "coordinates": [ 108.9982981, 34.26193713 ] } },
{ "type": "Feature", "properties": { "area": "雁塔区", "positionname": "电子城街办", "stationcode": "1070C", "latitude": "34.20525772", "longitude": "108.9145269", "stationattri": 8.0, "unifiedcode": 610113000000.0, "unifiedcode_p": 610100000000.0, "ctime": null, "ptype": 8.0 }, "geometry": { "type": "Point", "coordinates": [ 108.9145269, 34.20525772 ] } },
{ "type": "Feature", "properties": { "area": "阎良区", "positionname": "经济开发区", "stationcode": "1031C", "latitude": "34.65591044", "longitude": "109.2051851", "stationattri": 8.0, "unifiedcode": 610114000000.0, "unifiedcode_p": 610100000000.0, "ctime": null, "ptype": 8.0 }, "geometry": { "type": "Point", "coordinates": [ 109.2051851, 34.65591044 ] } },
{ "type": "Feature", "properties": { "area": "阎良区", "positionname": "北屯街办", "stationcode": "1155C", "latitude": "34.60695641", "longitude": "109.2425156", "stationattri": 8.0, "unifiedcode": 610114000000.0, "unifiedcode_p": 610100000000.0, "ctime": null, "ptype": 8.0 }, "geometry": { "type": "Point", "coordinates": [ 109.2425156, 34.60695641 ] } },
{ "type": "Feature", "properties": { "area": "临潼区", "positionname": "现代物流园", "stationcode": "1037C", "latitude": "34.38948421", "longitude": "109.1758667", "stationattri": 8.0, "unifiedcode": 610115000000.0, "unifiedcode_p": 610100000000.0, "ctime": null, "ptype": 8.0 }, "geometry": { "type": "Point", "coordinates": [ 109.1758667, 34.38948421 ] } },
{ "type": "Feature", "properties": { "area": "周至县", "positionname": "广济镇", "stationcode": "1023C", "latitude": "34.11412165", "longitude": "108.1477537", "stationattri": 8.0, "unifiedcode": 610124000000.0, "unifiedcode_p": 610100000000.0, "ctime": null, "ptype": 8.0 }, "geometry": { "type": "Point", "coordinates": [ 108.1477537, 34.11412165 ] } },
{ "type": "Feature", "properties": { "area": "周至县", "positionname": "青化镇", "stationcode": "1131C", "latitude": "34.17770017", "longitude": "108.0476323", "stationattri": 8.0, "unifiedcode": 610124000000.0, "unifiedcode_p": 610100000000.0, "ctime": null, "ptype": 8.0 }, "geometry": { "type": "Point", "coordinates": [ 108.0476323, 34.17770017 ] } },
{ "type": "Feature", "properties": { "area": "沣东新城", "positionname": "斗门街办", "stationcode": "1139C", "latitude": "34.227401", "longitude": "108.76578", "stationattri": 8.0, "unifiedcode": 619902000000.0, "unifiedcode_p": 610100000000.0, "ctime": null, "ptype": 8.0 }, "geometry": { "type": "Point", "coordinates": [ 108.76578, 34.227401 ] } },
{ "type": "Feature", "properties": { "area": "浐灞生态区", "positionname": "临潼区", "stationcode": "610111051", "latitude": "34.2328", "longitude": "109.0425", "stationattri": 1.0, "unifiedcode": null, "unifiedcode_p": 610100000000.0, "ctime": null, "ptype": 1.0 }, "geometry": { "type": "Point", "coordinates": [ 109.0425, 34.2328 ] } },
{ "type": "Feature", "properties": { "area": "莲湖区", "positionname": "政协办公楼", "stationcode": "610127052", "latitude": "34.262875", "longitude": "108.925364", "stationattri": 1.0, "unifiedcode": 610104000000.0, "unifiedcode_p": 610100000000.0, "ctime": null, "ptype": 1.0 }, "geometry": { "type": "Point", "coordinates": [ 108.925364, 34.262875 ] } },
{ "type": "Feature", "properties": { "area": "蓝田县", "positionname": "银河坊社区", "stationcode": "610122051", "latitude": "34.1575", "longitude": "109.3144444", "stationattri": 1.0, "unifiedcode": 610122000000.0, "unifiedcode_p": 610100000000.0, "ctime": null, "ptype": 1.0 }, "geometry": { "type": "Point", "coordinates": [ 109.3144444, 34.1575 ] } },
{ "type": "Feature", "properties": { "area": "曲江新区", "positionname": "长安区", "stationcode": "610180051", "latitude": "34.197636", "longitude": "109.033219", "stationattri": 1.0, "unifiedcode": 610100040000.0, "unifiedcode_p": 610100000000.0, "ctime": null, "ptype": 1.0 }, "geometry": { "type": "Point", "coordinates": [ 109.033219, 34.197636 ] } },
{ "type": "Feature", "properties": { "area": "耀州区", "positionname": "经开区", "stationcode": "610204051", "latitude": "34.91111111", "longitude": "108.9747222", "stationattri": 1.0, "unifiedcode": 610204000000.0, "unifiedcode_p": 610200000000.0, "ctime": null, "ptype": 1.0 }, "geometry": { "type": "Point", "coordinates": [ 108.9747222, 34.91111111 ] } },
{ "type": "Feature", "properties": { "area": "宝鸡市", "positionname": "新区管委会", "stationcode": "610300054", "latitude": "34.36222222", "longitude": "107.2386111", "stationattri": 0.0, "unifiedcode": null, "unifiedcode_p": 610300000000.0, "ctime": null, "ptype": 0.0 }, "geometry": { "type": "Point", "coordinates": [ 107.2386111, 34.36222222 ] } },
{ "type": "Feature", "properties": { "area": "眉县", "positionname": "庙沟村(对照点)", "stationcode": "610326052", "latitude": "34.2761", "longitude": "107.745", "stationattri": 1.0, "unifiedcode": null, "unifiedcode_p": 610300000000.0, "ctime": null, "ptype": 1.0 }, "geometry": { "type": "Point", "coordinates": [ 107.745, 34.2761 ] } },
{ "type": "Feature", "properties": { "area": "莲湖区", "positionname": "太华路街办", "stationcode": "1178C", "latitude": "34.28900116", "longitude": "108.8659117", "stationattri": 8.0, "unifiedcode": 610104000000.0, "unifiedcode_p": 610100000000.0, "ctime": null, "ptype": 8.0 }, "geometry": { "type": "Point", "coordinates": [ 108.8659117, 34.28900116 ] } },
{ "type": "Feature", "properties": { "area": "雁塔区", "positionname": "文艺路街办", "stationcode": "1071C", "latitude": "34.22549819", "longitude": "108.9321143", "stationattri": 8.0, "unifiedcode": 610113000000.0, "unifiedcode_p": 610100000000.0, "ctime": null, "ptype": 8.0 }, "geometry": { "type": "Point", "coordinates": [ 108.9321143, 34.22549819 ] } },
{ "type": "Feature", "properties": { "area": "秦汉新城", "positionname": "正阳街办", "stationcode": "1144C", "latitude": "34.433924", "longitude": "108.932819", "stationattri": 8.0, "unifiedcode": 619903000000.0, "unifiedcode_p": 610100000000.0, "ctime": null, "ptype": 8.0 }, "geometry": { "type": "Point", "coordinates": [ 108.932819, 34.433924 ] } },
{ "type": "Feature", "properties": { "area": "经开区", "positionname": "香堤小区", "stationcode": "610112053", "latitude": "34.375", "longitude": "108.8769", "stationattri": 1.0, "unifiedcode": null, "unifiedcode_p": 610100000000.0, "ctime": null, "ptype": 1.0 }, "geometry": { "type": "Point", "coordinates": [ 108.8769, 34.375 ] } },
{ "type": "Feature", "properties": { "area": "长安区", "positionname": "砲里街办", "stationcode": "1086C", "latitude": "34.16859288", "longitude": "109.135845", "stationattri": 8.0, "unifiedcode": 610116000000.0, "unifiedcode_p": 610100000000.0, "ctime": null, "ptype": 8.0 }, "geometry": { "type": "Point", "coordinates": [ 109.135845, 34.16859288 ] } },
{ "type": "Feature", "properties": { "area": "鄠邑区", "positionname": "新区办", "stationcode": "1214C", "latitude": "34.09578057", "longitude": "108.614298", "stationattri": 8.0, "unifiedcode": 610118000000.0, "unifiedcode_p": 610100000000.0, "ctime": null, "ptype": 8.0 }, "geometry": { "type": "Point", "coordinates": [ 108.614298, 34.09578057 ] } },
{ "type": "Feature", "properties": { "area": "高新区", "positionname": "软件新城", "stationcode": "1193C", "latitude": "34.21874126", "longitude": "108.8346151", "stationattri": 8.0, "unifiedcode": 610100000000.0, "unifiedcode_p": 610100000000.0, "ctime": null, "ptype": 8.0 }, "geometry": { "type": "Point", "coordinates": [ 108.8346151, 34.21874126 ] } },
{ "type": "Feature", "properties": { "area": "未央区", "positionname": "未央宫街办", "stationcode": "1018C", "latitude": "34.29637408", "longitude": "108.8970695", "stationattri": 8.0, "unifiedcode": 610112000000.0, "unifiedcode_p": 610100000000.0, "ctime": null, "ptype": 8.0 }, "geometry": { "type": "Point", "coordinates": [ 108.8970695, 34.29637408 ] } },
{ "type": "Feature", "properties": { "area": "蓝田县", "positionname": "九间房镇", "stationcode": "1091C", "latitude": "34.17691823", "longitude": "109.5101595", "stationattri": 8.0, "unifiedcode": 610122000000.0, "unifiedcode_p": 610100000000.0, "ctime": null, "ptype": 8.0 }, "geometry": { "type": "Point", "coordinates": [ 109.5101595, 34.17691823 ] } },
{ "type": "Feature", "properties": { "area": "蓝田县", "positionname": "玉山镇", "stationcode": "1104C", "latitude": "34.21559405", "longitude": "109.5295262", "stationattri": 8.0, "unifiedcode": 610122000000.0, "unifiedcode_p": 610100000000.0, "ctime": null, "ptype": 8.0 }, "geometry": { "type": "Point", "coordinates": [ 109.5295262, 34.21559405 ] } },
{ "type": "Feature", "properties": { "area": "国际港务区", "positionname": "新筑街办", "stationcode": "1008C", "latitude": "34.3552108", "longitude": "109.0873146", "stationattri": 8.0, "unifiedcode": 610100000000.0, "unifiedcode_p": 610100000000.0, "ctime": null, "ptype": 8.0 }, "geometry": { "type": "Point", "coordinates": [ 109.0873146, 34.3552108 ] } },
{ "type": "Feature", "properties": { "area": "略阳县", "positionname": "铁路车务段", "stationcode": "610727052", "latitude": "", "longitude": "", "stationattri": 1.0, "unifiedcode": null, "unifiedcode_p": null, "ctime": null, "ptype": 1.0 }, "geometry": null },
{ "type": "Feature", "properties": { "area": "西安市", "positionname": "广运潭", "stationcode": "610100093", "latitude": "34.23027778", "longitude": "108.8830556", "stationattri": 0.0, "unifiedcode": null, "unifiedcode_p": 610100000000.0, "ctime": null, "ptype": 0.0 }, "geometry": { "type": "Point", "coordinates": [ 108.8830556, 34.23027778 ] } },
{ "type": "Feature", "properties": { "area": "西安市", "positionname": "曲江文化产业集团", "stationcode": "610100055", "latitude": "34.27138889", "longitude": "108.9538889", "stationattri": 0.0, "unifiedcode": null, "unifiedcode_p": 610100000000.0, "ctime": null, "ptype": 0.0 }, "geometry": { "type": "Point", "coordinates": [ 108.9538889, 34.27138889 ] } },
{ "type": "Feature", "properties": { "area": "西安市", "positionname": "田家炳中学", "stationcode": "610100001", "latitude": "34.37805556", "longitude": "108.8691667", "stationattri": 0.0, "unifiedcode": null, "unifiedcode_p": 610100000000.0, "ctime": null, "ptype": 0.0 }, "geometry": { "type": "Point", "coordinates": [ 108.8691667, 34.37805556 ] } },
{ "type": "Feature", "properties": { "area": "西安市", "positionname": "纺织城", "stationcode": "610100059", "latitude": "34.275", "longitude": "108.8819444", "stationattri": 0.0, "unifiedcode": null, "unifiedcode_p": 610100000000.0, "ctime": null, "ptype": 0.0 }, "geometry": { "type": "Point", "coordinates": [ 108.8819444, 34.275 ] } },
{ "type": "Feature", "properties": { "area": "西安市", "positionname": "航空基地城管局", "stationcode": "610100052", "latitude": "34.26277778", "longitude": "108.9930556", "stationattri": 0.0, "unifiedcode": null, "unifiedcode_p": 610100000000.0, "ctime": null, "ptype": 0.0 }, "geometry": { "type": "Point", "coordinates": [ 108.9930556, 34.26277778 ] } },
{ "type": "Feature", "properties": { "area": "新城区", "positionname": "小寨", "stationcode": "610112052", "latitude": "34.295", "longitude": "108.963611", "stationattri": 1.0, "unifiedcode": 610102000000.0, "unifiedcode_p": 610100000000.0, "ctime": null, "ptype": 1.0 }, "geometry": { "type": "Point", "coordinates": [ 108.963611, 34.295 ] } },
{ "type": "Feature", "properties": { "area": "莲湖区", "positionname": "博爱学校", "stationcode": "610127051", "latitude": "34.250833333", "longitude": "108.89194444", "stationattri": 1.0, "unifiedcode": 610104000000.0, "unifiedcode_p": 610100000000.0, "ctime": null, "ptype": 1.0 }, "geometry": { "type": "Point", "coordinates": [ 108.89194444, 34.250833333 ] } },
{ "type": "Feature", "properties": { "area": "灞桥区", "positionname": "绿地生态城", "stationcode": "610128051", "latitude": "34.214792", "longitude": "109.100097", "stationattri": 1.0, "unifiedcode": 610111000000.0, "unifiedcode_p": 610100000000.0, "ctime": null, "ptype": 1.0 }, "geometry": { "type": "Point", "coordinates": [ 109.100097, 34.214792 ] } },
{ "type": "Feature", "properties": { "area": "未央区", "positionname": "高新西区", "stationcode": "610112051", "latitude": "34.396475", "longitude": "108.97545", "stationattri": 1.0, "unifiedcode": 610112000000.0, "unifiedcode_p": 610100000000.0, "ctime": null, "ptype": 1.0 }, "geometry": { "type": "Point", "coordinates": [ 108.97545, 34.396475 ] } },
{ "type": "Feature", "properties": { "area": "西安市", "positionname": "市人民体育场", "stationcode": "1007A", "latitude": "34.6575", "longitude": "109.2", "stationattri": 1.0, "unifiedcode": 610114000000.0, "unifiedcode_p": 610100000000.0, "ctime": null, "ptype": 1.0 }, "geometry": { "type": "Point", "coordinates": [ 109.2, 34.6575 ] } },
{ "type": "Feature", "properties": { "area": "阎良区", "positionname": "草滩(对照点)", "stationcode": "610114051", "latitude": "34.6647", "longitude": "109.2211", "stationattri": 1.0, "unifiedcode": 610114000000.0, "unifiedcode_p": 610100000000.0, "ctime": null, "ptype": 1.0 }, "geometry": { "type": "Point", "coordinates": [ 109.2211, 34.6647 ] } },
{ "type": "Feature", "properties": { "area": "临潼区", "positionname": "高压开关厂", "stationcode": "610115051", "latitude": "34.388112", "longitude": "109.291037", "stationattri": 1.0, "unifiedcode": 610115000000.0, "unifiedcode_p": 610100000000.0, "ctime": null, "ptype": 1.0 }, "geometry": { "type": "Point", "coordinates": [ 109.291037, 34.388112 ] } },
{ "type": "Feature", "properties": { "area": "西安市", "positionname": "兴庆小区", "stationcode": "610100054", "latitude": "34.15472222", "longitude": "108.9061111", "stationattri": 0.0, "unifiedcode": 610116000000.0, "unifiedcode_p": 610100000000.0, "ctime": null, "ptype": 0.0 }, "geometry": { "type": "Point", "coordinates": [ 108.9061111, 34.15472222 ] } },
{ "type": "Feature", "properties": { "area": "周至县", "positionname": "科技馆", "stationcode": "610124051", "latitude": "34.15861111", "longitude": "108.2138889", "stationattri": 1.0, "unifiedcode": 610124000000.0, "unifiedcode_p": 610100000000.0, "ctime": null, "ptype": 1.0 }, "geometry": { "type": "Point", "coordinates": [ 108.2138889, 34.15861111 ] } },
{ "type": "Feature", "properties": { "area": "鄠邑区", "positionname": "丰庆小区", "stationcode": "610125052", "latitude": "34.107022", "longitude": "108.58715", "stationattri": 1.0, "unifiedcode": 610118000000.0, "unifiedcode_p": 610100000000.0, "ctime": null, "ptype": 1.0 }, "geometry": { "type": "Point", "coordinates": [ 108.58715, 34.107022 ] } },
{ "type": "Feature", "properties": { "area": "户县", "positionname": "汽车科技学院", "stationcode": "610125051", "latitude": "34.10916667", "longitude": "108.6005556", "stationattri": 0.0, "unifiedcode": 610118000000.0, "unifiedcode_p": 610100000000.0, "ctime": null, "ptype": 0.0 }, "geometry": { "type": "Point", "coordinates": [ 108.6005556, 34.10916667 ] } },
{ "type": "Feature", "properties": { "area": "高陵区", "positionname": "碧云天小区", "stationcode": "610126052", "latitude": "34.535", "longitude": "109.0889", "stationattri": 1.0, "unifiedcode": 610117000000.0, "unifiedcode_p": 610100000000.0, "ctime": null, "ptype": 1.0 }, "geometry": { "type": "Point", "coordinates": [ 109.0889, 34.535 ] } },
{ "type": "Feature", "properties": { "area": "高陵县", "positionname": "阎良区", "stationcode": "610126051", "latitude": "34.52972222", "longitude": "109.0997222", "stationattri": 0.0, "unifiedcode": 610117000000.0, "unifiedcode_p": 610100000000.0, "ctime": null, "ptype": 0.0 }, "geometry": { "type": "Point", "coordinates": [ 109.0997222, 34.52972222 ] } },
{ "type": "Feature", "properties": { "area": "西安市", "positionname": "环保分局", "stationcode": "610100053", "latitude": "34.3475", "longitude": "108.935", "stationattri": 0.0, "unifiedcode": 610100010000.0, "unifiedcode_p": 610100000000.0, "ctime": null, "ptype": 0.0 }, "geometry": { "type": "Point", "coordinates": [ 108.935, 34.3475 ] } },
{ "type": "Feature", "properties": { "area": "高新区", "positionname": "临潼区兵马俑博物馆", "stationcode": "610190051", "latitude": "34.0108", "longitude": "108.7070", "stationattri": 1.0, "unifiedcode": 610100020000.0, "unifiedcode_p": 610100000000.0, "ctime": null, "ptype": 1.0 }, "geometry": { "type": "Point", "coordinates": [ 108.707, 34.0108 ] } },
{ "type": "Feature", "properties": { "area": "铜川市", "positionname": "蓝田县政府", "stationcode": "610200064", "latitude": "34.8732", "longitude": "108.9543", "stationattri": 0.0, "unifiedcode": null, "unifiedcode_p": 610200000000.0, "ctime": null, "ptype": 0.0 }, "geometry": { "type": "Point", "coordinates": [ 108.9543, 34.8732 ] } },
{ "type": "Feature", "properties": { "area": "铜川市", "positionname": "周至县环保局", "stationcode": "610200001", "latitude": "35.1", "longitude": "109.0641667", "stationattri": 0.0, "unifiedcode": null, "unifiedcode_p": 610200000000.0, "ctime": null, "ptype": 0.0 }, "geometry": { "type": "Point", "coordinates": [ 109.0641667, 35.1 ] } },
{ "type": "Feature", "properties": { "area": "铜川市", "positionname": "户县荣华小学", "stationcode": "610200061", "latitude": "35.06972222", "longitude": "109.0697222", "stationattri": 0.0, "unifiedcode": null, "unifiedcode_p": 610200000000.0, "ctime": null, "ptype": 0.0 }, "geometry": { "type": "Point", "coordinates": [ 109.0697222, 35.06972222 ] } },
{ "type": "Feature", "properties": { "area": "铜川市", "positionname": "户县文体局", "stationcode": "610200062", "latitude": "34.90583333", "longitude": "108.9344444", "stationattri": 0.0, "unifiedcode": null, "unifiedcode_p": 610200000000.0, "ctime": null, "ptype": 0.0 }, "geometry": { "type": "Point", "coordinates": [ 108.9344444, 34.90583333 ] } },
{ "type": "Feature", "properties": { "area": "王益区", "positionname": "环监大队", "stationcode": "610202051", "latitude": "35.05605", "longitude": "109.078064", "stationattri": 1.0, "unifiedcode": 610202000000.0, "unifiedcode_p": 610200000000.0, "ctime": null, "ptype": 1.0 }, "geometry": { "type": "Point", "coordinates": [ 109.078064, 35.05605 ] } },
{ "type": "Feature", "properties": { "area": "印台区", "positionname": "高陵县无线电监控中心", "stationcode": "610203051", "latitude": "35.120717", "longitude": "109.106103", "stationattri": 1.0, "unifiedcode": 610203000000.0, "unifiedcode_p": 610200000000.0, "ctime": null, "ptype": 1.0 }, "geometry": { "type": "Point", "coordinates": [ 109.106103, 35.120717 ] } },
{ "type": "Feature", "properties": { "area": "宜君县", "positionname": "草堂基地", "stationcode": "610222051", "latitude": "35.39888889", "longitude": "109.1116667", "stationattri": 1.0, "unifiedcode": 610222000000.0, "unifiedcode_p": 610200000000.0, "ctime": null, "ptype": 1.0 }, "geometry": { "type": "Point", "coordinates": [ 109.1116667, 35.39888889 ] } },
{ "type": "Feature", "properties": { "area": "太白县", "positionname": "CBD中央商务区", "stationcode": "610331052", "latitude": "34.0564", "longitude": "107.3342", "stationattri": 1.0, "unifiedcode": null, "unifiedcode_p": 610300000000.0, "ctime": null, "ptype": 1.0 }, "geometry": { "type": "Point", "coordinates": [ 107.3342, 34.0564 ] } },
{ "type": "Feature", "properties": { "area": "扶风县", "positionname": "三里洞老矿部", "stationcode": "610324052", "latitude": "34.4403", "longitude": "107.8881", "stationattri": 1.0, "unifiedcode": null, "unifiedcode_p": 610300000000.0, "ctime": null, "ptype": 1.0 }, "geometry": { "type": "Point", "coordinates": [ 107.8881, 34.4403 ] } },
{ "type": "Feature", "properties": { "area": "千阳县", "positionname": "旺旺集团", "stationcode": "610328052", "latitude": "34.6494", "longitude": "107.1175", "stationattri": 1.0, "unifiedcode": null, "unifiedcode_p": 610300000000.0, "ctime": null, "ptype": 1.0 }, "geometry": { "type": "Point", "coordinates": [ 107.1175, 34.6494 ] } },
{ "type": "Feature", "properties": { "area": "宝鸡市", "positionname": "党校(对照点)", "stationcode": "610300003", "latitude": "34.30638889", "longitude": "107.185", "stationattri": 0.0, "unifiedcode": null, "unifiedcode_p": 610300000000.0, "ctime": null, "ptype": 0.0 }, "geometry": { "type": "Point", "coordinates": [ 107.185, 34.30638889 ] } },
{ "type": "Feature", "properties": { "area": "宝鸡市", "positionname": "王益区政府", "stationcode": "610300051", "latitude": "34.35166667", "longitude": "107.2027778", "stationattri": 0.0, "unifiedcode": null, "unifiedcode_p": 610300000000.0, "ctime": null, "ptype": 0.0 }, "geometry": { "type": "Point", "coordinates": [ 107.2027778, 34.35166667 ] } },
{ "type": "Feature", "properties": { "area": "宝鸡市", "positionname": "塬畔社区", "stationcode": "610300059", "latitude": "34.30166667", "longitude": "107.0708333", "stationattri": 0.0, "unifiedcode": null, "unifiedcode_p": 610300000000.0, "ctime": null, "ptype": 0.0 }, "geometry": { "type": "Point", "coordinates": [ 107.0708333, 34.30166667 ] } },
{ "type": "Feature", "properties": { "area": "宝鸡市", "positionname": "印台区政府", "stationcode": "610300058", "latitude": "34.37611111", "longitude": "107.1172222", "stationattri": 0.0, "unifiedcode": null, "unifiedcode_p": 610300000000.0, "ctime": null, "ptype": 0.0 }, "geometry": { "type": "Point", "coordinates": [ 107.1172222, 34.37611111 ] } },
{ "type": "Feature", "properties": { "area": "宝鸡市", "positionname": "耀州区政府", "stationcode": "610300053", "latitude": "34.36722222", "longitude": "107.1905556", "stationattri": 0.0, "unifiedcode": null, "unifiedcode_p": 610300000000.0, "ctime": null, "ptype": 0.0 }, "geometry": { "type": "Point", "coordinates": [ 107.1905556, 34.36722222 ] } },
{ "type": "Feature", "properties": { "area": "宝鸡市", "positionname": "宜君县政府", "stationcode": "610300057", "latitude": "34.35472222", "longitude": "107.1430556", "stationattri": 0.0, "unifiedcode": null, "unifiedcode_p": 610300000000.0, "ctime": null, "ptype": 0.0 }, "geometry": { "type": "Point", "coordinates": [ 107.1430556, 34.35472222 ] } },
{ "type": "Feature", "properties": { "area": "宝鸡市", "positionname": "药王茶公司", "stationcode": "610300056", "latitude": "34.35111111", "longitude": "107.3886111", "stationattri": 0.0, "unifiedcode": null, "unifiedcode_p": 610300000000.0, "ctime": null, "ptype": 0.0 }, "geometry": { "type": "Point", "coordinates": [ 107.3886111, 34.35111111 ] } },
{ "type": "Feature", "properties": { "area": "麟游县", "positionname": "法门镇政府", "stationcode": "610329052", "latitude": "34.6797", "longitude": "107.8039", "stationattri": 1.0, "unifiedcode": null, "unifiedcode_p": 610300000000.0, "ctime": null, "ptype": 1.0 }, "geometry": { "type": "Point", "coordinates": [ 107.8039, 34.6797 ] } },
{ "type": "Feature", "properties": { "area": "陈仓区", "positionname": "西关村", "stationcode": "610304051", "latitude": "34.3578", "longitude": "107.3819", "stationattri": 1.0, "unifiedcode": null, "unifiedcode_p": 610300000000.0, "ctime": null, "ptype": 1.0 }, "geometry": { "type": "Point", "coordinates": [ 107.3819, 34.3578 ] } },
{ "type": "Feature", "properties": { "area": "陇县", "positionname": "文理学院", "stationcode": "610327052", "latitude": "34.8908", "longitude": "106.8714", "stationattri": 1.0, "unifiedcode": null, "unifiedcode_p": 610300000000.0, "ctime": null, "ptype": 1.0 }, "geometry": { "type": "Point", "coordinates": [ 106.8714, 34.8908 ] } },
{ "type": "Feature", "properties": { "area": "岐山县", "positionname": "三迪小学", "stationcode": "610323052", "latitude": "34.4475", "longitude": "107.6339", "stationattri": 1.0, "unifiedcode": null, "unifiedcode_p": 610300000000.0, "ctime": null, "ptype": 1.0 }, "geometry": { "type": "Point", "coordinates": [ 107.6339, 34.4475 ] } },
{ "type": "Feature", "properties": { "area": "灞桥区", "positionname": "北院门街办", "stationcode": "1000C", "latitude": "34.26928571", "longitude": "109.1560964", "stationattri": 8.0, "unifiedcode": 610111000000.0, "unifiedcode_p": 610100000000.0, "ctime": null, "ptype": 8.0 }, "geometry": { "type": "Point", "coordinates": [ 109.1560964, 34.26928571 ] } },
{ "type": "Feature", "properties": { "area": "岐山县", "positionname": "技工学校", "stationcode": "61323051", "latitude": "34.44416667", "longitude": "107.6213889", "stationattri": 1.0, "unifiedcode": 610323000000.0, "unifiedcode_p": 610300000000.0, "ctime": null, "ptype": 1.0 }, "geometry": { "type": "Point", "coordinates": [ 107.6213889, 34.44416667 ] } },
{ "type": "Feature", "properties": { "area": "扶风县", "positionname": "三陆医院", "stationcode": "610324051", "latitude": "34.37694444", "longitude": "107.8858333", "stationattri": 1.0, "unifiedcode": 610324000000.0, "unifiedcode_p": 610300000000.0, "ctime": null, "ptype": 1.0 }, "geometry": { "type": "Point", "coordinates": [ 107.8858333, 34.37694444 ] } },
{ "type": "Feature", "properties": { "area": "眉县", "positionname": "宝鸡市监测站", "stationcode": "610326051", "latitude": "34.265", "longitude": "107.7597222", "stationattri": 1.0, "unifiedcode": 610326000000.0, "unifiedcode_p": 610300000000.0, "ctime": null, "ptype": 1.0 }, "geometry": { "type": "Point", "coordinates": [ 107.7597222, 34.265 ] } },
{ "type": "Feature", "properties": { "area": "陇县", "positionname": "陈仓区环保局家属楼", "stationcode": "610327051", "latitude": "34.89916667", "longitude": "106.8511111", "stationattri": 1.0, "unifiedcode": 610327000000.0, "unifiedcode_p": 610300000000.0, "ctime": null, "ptype": 1.0 }, "geometry": { "type": "Point", "coordinates": [ 106.8511111, 34.89916667 ] } },
{ "type": "Feature", "properties": { "area": "千阳县", "positionname": "林业局", "stationcode": "610328051", "latitude": "34.64583333", "longitude": "107.1205556", "stationattri": 1.0, "unifiedcode": 610328000000.0, "unifiedcode_p": 610300000000.0, "ctime": null, "ptype": 1.0 }, "geometry": { "type": "Point", "coordinates": [ 107.1205556, 34.64583333 ] } },
{ "type": "Feature", "properties": { "area": "凤县", "positionname": "眉县县政府", "stationcode": "610330051", "latitude": "33.91222222", "longitude": "106.5127778", "stationattri": 1.0, "unifiedcode": 610330000000.0, "unifiedcode_p": 610300000000.0, "ctime": null, "ptype": 1.0 }, "geometry": { "type": "Point", "coordinates": [ 106.5127778, 33.91222222 ] } },
{ "type": "Feature", "properties": { "area": "太白县", "positionname": "社火广场", "stationcode": "610331051", "latitude": "34.05888889", "longitude": "107.3177778", "stationattri": 1.0, "unifiedcode": 610331000000.0, "unifiedcode_p": 610300000000.0, "ctime": null, "ptype": 1.0 }, "geometry": { "type": "Point", "coordinates": [ 107.3177778, 34.05888889 ] } },
{ "type": "Feature", "properties": { "area": "武功县", "positionname": "岐山高中", "stationcode": "610431059", "latitude": "34.2578", "longitude": "108.1892", "stationattri": 1.0, "unifiedcode": null, "unifiedcode_p": 610400000000.0, "ctime": null, "ptype": 1.0 }, "geometry": { "type": "Point", "coordinates": [ 108.1892, 34.2578 ] } },
{ "type": "Feature", "properties": { "area": "乾县", "positionname": "凤翔中学", "stationcode": "610424068", "latitude": "34.5256", "longitude": "108.2703", "stationattri": 1.0, "unifiedcode": null, "unifiedcode_p": 610400000000.0, "ctime": null, "ptype": 1.0 }, "geometry": { "type": "Point", "coordinates": [ 108.2703, 34.5256 ] } },
{ "type": "Feature", "properties": { "area": "泾河新城", "positionname": "岐山县环保局", "stationcode": "610000057", "latitude": "34.5230555\r", "longitude": "108.8519444", "stationattri": 1.0, "unifiedcode": null, "unifiedcode_p": 610400000000.0, "ctime": null, "ptype": 1.0 }, "geometry": { "type": "Point", "coordinates": [ 108.8519444, 34.5230555 ] } },
{ "type": "Feature", "properties": { "area": "咸阳市", "positionname": "扶风县环保局", "stationcode": "610400057", "latitude": "34.31638889", "longitude": "108.7369444", "stationattri": 0.0, "unifiedcode": null, "unifiedcode_p": 610400000000.0, "ctime": null, "ptype": 0.0 }, "geometry": { "type": "Point", "coordinates": [ 108.7369444, 34.31638889 ] } },
{ "type": "Feature", "properties": { "area": "兴平市", "positionname": "眉县环保局", "stationcode": "610481064", "latitude": "34.3036", "longitude": "108.4778", "stationattri": 1.0, "unifiedcode": null, "unifiedcode_p": 610400000000.0, "ctime": null, "ptype": 1.0 }, "geometry": { "type": "Point", "coordinates": [ 108.4778, 34.3036 ] } },
{ "type": "Feature", "properties": { "area": "长武县", "positionname": "陇县环保局", "stationcode": "610428059", "latitude": "35.2069", "longitude": "107.7942", "stationattri": 1.0, "unifiedcode": null, "unifiedcode_p": 610400000000.0, "ctime": null, "ptype": 1.0 }, "geometry": { "type": "Point", "coordinates": [ 107.7942, 35.2069 ] } },
{ "type": "Feature", "properties": { "area": "咸阳市", "positionname": "麟游县环保局", "stationcode": "610400053", "latitude": "34.31805556", "longitude": "108.6761111", "stationattri": 0.0, "unifiedcode": null, "unifiedcode_p": 610400000000.0, "ctime": null, "ptype": 0.0 }, "geometry": { "type": "Point", "coordinates": [ 108.6761111, 34.31805556 ] } },
{ "type": "Feature", "properties": { "area": "三原县", "positionname": "凤县市民中心", "stationcode": "610422062", "latitude": "34.6225", "longitude": "108.9489", "stationattri": 1.0, "unifiedcode": null, "unifiedcode_p": 610400000000.0, "ctime": null, "ptype": 1.0 }, "geometry": { "type": "Point", "coordinates": [ 108.9489, 34.6225 ] } },
{ "type": "Feature", "properties": { "area": "淳化县", "positionname": "太白县纪委", "stationcode": "610430059", "latitude": "34.7833", "longitude": "108.5753", "stationattri": 1.0, "unifiedcode": null, "unifiedcode_p": 610400000000.0, "ctime": null, "ptype": 1.0 }, "geometry": { "type": "Point", "coordinates": [ 108.5753, 34.7833 ] } },
{ "type": "Feature", "properties": { "area": "彬州市", "positionname": "普集中学", "stationcode": "610427051", "latitude": "35.0361", "longitude": "108.0875", "stationattri": 1.0, "unifiedcode": null, "unifiedcode_p": 610400000000.0, "ctime": null, "ptype": 1.0 }, "geometry": { "type": "Point", "coordinates": [ 108.0875, 35.0361 ] } },
{ "type": "Feature", "properties": { "area": "长武县", "positionname": "食药监中心", "stationcode": "610428051", "latitude": "35.213611", "longitude": "107.789167", "stationattri": 1.0, "unifiedcode": null, "unifiedcode_p": 610400000000.0, "ctime": null, "ptype": 1.0 }, "geometry": { "type": "Point", "coordinates": [ 107.789167, 35.213611 ] } },
{ "type": "Feature", "properties": { "area": "彬州市", "positionname": "智慧农业园", "stationcode": "610427060", "latitude": "35.0339", "longitude": "108.0972", "stationattri": 1.0, "unifiedcode": null, "unifiedcode_p": 610400000000.0, "ctime": null, "ptype": 1.0 }, "geometry": { "type": "Point", "coordinates": [ 108.0972, 35.0339 ] } },
{ "type": "Feature", "properties": { "area": "旬邑县", "positionname": "两寺渡", "stationcode": "610429061", "latitude": "35.1286", "longitude": "108.3503", "stationattri": 1.0, "unifiedcode": null, "unifiedcode_p": 610400000000.0, "ctime": null, "ptype": 1.0 }, "geometry": { "type": "Point", "coordinates": [ 108.3503, 35.1286 ] } },
{ "type": "Feature", "properties": { "area": "文体功能区", "positionname": "长武县政府", "stationcode": "610402056", "latitude": "34.4078", "longitude": "108.6396", "stationattri": 0.0, "unifiedcode": 610400020000.0, "unifiedcode_p": 610400000000.0, "ctime": null, "ptype": 0.0 }, "geometry": { "type": "Point", "coordinates": [ 108.6396, 34.4078 ] } },
{ "type": "Feature", "properties": { "area": "三原县", "positionname": "师范学院", "stationcode": "610422051", "latitude": "34.62027778", "longitude": "108.9322222", "stationattri": 1.0, "unifiedcode": 610422000000.0, "unifiedcode_p": 610400000000.0, "ctime": null, "ptype": 1.0 }, "geometry": { "type": "Point", "coordinates": [ 108.9322222, 34.62027778 ] } },
{ "type": "Feature", "properties": { "area": "泾阳县", "positionname": "咸阳市实验中学", "stationcode": "610423051", "latitude": "34.5325", "longitude": "108.8352778", "stationattri": 1.0, "unifiedcode": 610423000000.0, "unifiedcode_p": 610400000000.0, "ctime": null, "ptype": 1.0 }, "geometry": { "type": "Point", "coordinates": [ 108.8352778, 34.5325 ] } },
{ "type": "Feature", "properties": { "area": "乾县", "positionname": "东郊中学", "stationcode": "610424051", "latitude": "34.52944444", "longitude": "108.2347222", "stationattri": 1.0, "unifiedcode": 610424000000.0, "unifiedcode_p": 610400000000.0, "ctime": null, "ptype": 1.0 }, "geometry": { "type": "Point", "coordinates": [ 108.2347222, 34.52944444 ] } },
{ "type": "Feature", "properties": { "area": "礼泉县", "positionname": "环保家属楼", "stationcode": "610425051", "latitude": "34.48638889", "longitude": "108.4372222", "stationattri": 1.0, "unifiedcode": 610425000000.0, "unifiedcode_p": 610400000000.0, "ctime": null, "ptype": 1.0 }, "geometry": { "type": "Point", "coordinates": [ 108.4372222, 34.48638889 ] } },
{ "type": "Feature", "properties": { "area": "武功县", "positionname": "长武中学", "stationcode": "610431051", "latitude": "34.25916667", "longitude": "108.2083333", "stationattri": 1.0, "unifiedcode": 610431000000.0, "unifiedcode_p": 610400000000.0, "ctime": null, "ptype": 1.0 }, "geometry": { "type": "Point", "coordinates": [ 108.2083333, 34.25916667 ] } },
{ "type": "Feature", "properties": { "area": "兴平市", "positionname": "公刘小学", "stationcode": "610481051", "latitude": "34.30333333", "longitude": "108.4777778", "stationattri": 1.0, "unifiedcode": 610481000000.0, "unifiedcode_p": 610400000000.0, "ctime": null, "ptype": 1.0 }, "geometry": { "type": "Point", "coordinates": [ 108.4777778, 34.30333333 ] } },
{ "type": "Feature", "properties": { "area": "潼关县", "positionname": "林业救援队", "stationcode": "610522052", "latitude": "34.5719", "longitude": "110.2461", "stationattri": 1.0, "unifiedcode": null, "unifiedcode_p": 610500000000.0, "ctime": null, "ptype": 1.0 }, "geometry": { "type": "Point", "coordinates": [ 110.2461, 34.5719 ] } },
{ "type": "Feature", "properties": { "area": "华阴市", "positionname": "文咸广场", "stationcode": "610582052", "latitude": "34.5306", "longitude": "109.0769", "stationattri": 1.0, "unifiedcode": null, "unifiedcode_p": 610500000000.0, "ctime": null, "ptype": 1.0 }, "geometry": { "type": "Point", "coordinates": [ 109.0769, 34.5306 ] } },
{ "type": "Feature", "properties": { "area": "澄城县", "positionname": "奥体中心", "stationcode": "610525053", "latitude": "35.2019", "longitude": "109.9447", "stationattri": 1.0, "unifiedcode": null, "unifiedcode_p": 610500000000.0, "ctime": null, "ptype": 1.0 }, "geometry": { "type": "Point", "coordinates": [ 109.9447, 35.2019 ] } },
{ "type": "Feature", "properties": { "area": "渭南市高新区", "positionname": "三原县体育场", "stationcode": "610501051", "latitude": "34.5184", "longitude": "109.4099", "stationattri": 1.0, "unifiedcode": null, "unifiedcode_p": 610500000000.0, "ctime": null, "ptype": 1.0 }, "geometry": { "type": "Point", "coordinates": [ 109.4099, 34.5184 ] } },
{ "type": "Feature", "properties": { "area": "渭南市", "positionname": "泾阳县泾干广场", "stationcode": "610500031", "latitude": "34.51", "longitude": "109.5291667", "stationattri": 0.0, "unifiedcode": null, "unifiedcode_p": 610500000000.0, "ctime": null, "ptype": 0.0 }, "geometry": { "type": "Point", "coordinates": [ 109.5291667, 34.51 ] } },
{ "type": "Feature", "properties": { "area": "渭南市", "positionname": "乾县农业局", "stationcode": "610500051", "latitude": "34.50027778", "longitude": "109.505", "stationattri": 0.0, "unifiedcode": null, "unifiedcode_p": 610500000000.0, "ctime": null, "ptype": 0.0 }, "geometry": { "type": "Point", "coordinates": [ 109.505, 34.50027778 ] } },
{ "type": "Feature", "properties": { "area": "大荔县", "positionname": "永寿县环保局", "stationcode": "610523052", "latitude": "34.8139", "longitude": "109.9317", "stationattri": 1.0, "unifiedcode": null, "unifiedcode_p": 610500000000.0, "ctime": null, "ptype": 1.0 }, "geometry": { "type": "Point", "coordinates": [ 109.9317, 34.8139 ] } },
{ "type": "Feature", "properties": { "area": "白水县", "positionname": "彬县环保局", "stationcode": "610527052", "latitude": "35.1739", "longitude": "109.5978", "stationattri": 1.0, "unifiedcode": null, "unifiedcode_p": 610500000000.0, "ctime": null, "ptype": 1.0 }, "geometry": { "type": "Point", "coordinates": [ 109.5978, 35.1739 ] } },
{ "type": "Feature", "properties": { "area": "华州区", "positionname": "旬邑县环保局", "stationcode": "610521052", "latitude": "34.4975", "longitude": "109.7631", "stationattri": 1.0, "unifiedcode": null, "unifiedcode_p": 610500000000.0, "ctime": null, "ptype": 1.0 }, "geometry": { "type": "Point", "coordinates": [ 109.7631, 34.4975 ] } },
{ "type": "Feature", "properties": { "area": "渭南市", "positionname": "武功县监测站", "stationcode": "610500053", "latitude": "34.50222222", "longitude": "109.4266667", "stationattri": 0.0, "unifiedcode": null, "unifiedcode_p": 610500000000.0, "ctime": null, "ptype": 0.0 }, "geometry": { "type": "Point", "coordinates": [ 109.4266667, 34.50222222 ] } },
{ "type": "Feature", "properties": { "area": "蒲城县", "positionname": "兴平市自来水公司", "stationcode": "610526052", "latitude": "34.9519", "longitude": "109.6172", "stationattri": 1.0, "unifiedcode": null, "unifiedcode_p": 610500000000.0, "ctime": null, "ptype": 1.0 }, "geometry": { "type": "Point", "coordinates": [ 109.6172, 34.9519 ] } },
{ "type": "Feature", "properties": { "area": "合阳县", "positionname": "四知学校", "stationcode": "610524052", "latitude": "35.2406", "longitude": "110.1483", "stationattri": 1.0, "unifiedcode": null, "unifiedcode_p": 610500000000.0, "ctime": null, "ptype": 1.0 }, "geometry": { "type": "Point", "coordinates": [ 110.1483, 35.2406 ] } },
{ "type": "Feature", "properties": { "area": "潼关县", "positionname": "职教中心", "stationcode": "610522051", "latitude": "34.54638889", "longitude": "110.2411111", "stationattri": 1.0, "unifiedcode": 610522000000.0, "unifiedcode_p": 610500000000.0, "ctime": null, "ptype": 1.0 }, "geometry": { "type": "Point", "coordinates": [ 110.2411111, 34.54638889 ] } },
{ "type": "Feature", "properties": { "area": "合阳县", "positionname": "渭化水站", "stationcode": "610524051", "latitude": "35.243804", "longitude": "110.155985", "stationattri": 1.0, "unifiedcode": 610524000000.0, "unifiedcode_p": 610500000000.0, "ctime": null, "ptype": 1.0 }, "geometry": { "type": "Point", "coordinates": [ 110.155985, 35.243804 ] } },
{ "type": "Feature", "properties": { "area": "澄城县", "positionname": "农科所(对照点)", "stationcode": "610525051", "latitude": "35.19111111", "longitude": "109.9266667", "stationattri": 1.0, "unifiedcode": 610525000000.0, "unifiedcode_p": 610500000000.0, "ctime": null, "ptype": 1.0 }, "geometry": { "type": "Point", "coordinates": [ 109.9266667, 35.19111111 ] } },
{ "type": "Feature", "properties": { "area": "蒲城县", "positionname": "日报社", "stationcode": "610526051", "latitude": "34.95694444", "longitude": "109.5811111", "stationattri": 1.0, "unifiedcode": 610526000000.0, "unifiedcode_p": 610500000000.0, "ctime": null, "ptype": 1.0 }, "geometry": { "type": "Point", "coordinates": [ 109.5811111, 34.95694444 ] } },
{ "type": "Feature", "properties": { "area": "白水县", "positionname": "体育馆", "stationcode": "610527051", "latitude": "35.17861111", "longitude": "109.5838889", "stationattri": 1.0, "unifiedcode": 610527000000.0, "unifiedcode_p": 610500000000.0, "ctime": null, "ptype": 1.0 }, "geometry": { "type": "Point", "coordinates": [ 109.5838889, 35.17861111 ] } },
{ "type": "Feature", "properties": { "area": "富平县", "positionname": "白水县检察院", "stationcode": "610528051", "latitude": "34.75305556", "longitude": "109.1744444", "stationattri": 1.0, "unifiedcode": 610528000000.0, "unifiedcode_p": 610500000000.0, "ctime": null, "ptype": 1.0 }, "geometry": { "type": "Point", "coordinates": [ 109.1744444, 34.75305556 ] } },
{ "type": "Feature", "properties": { "area": "华阴市", "positionname": "档案局", "stationcode": "610582051", "latitude": "34.571801", "longitude": "110.098681", "stationattri": 1.0, "unifiedcode": 610582000000.0, "unifiedcode_p": 610500000000.0, "ctime": null, "ptype": 1.0 }, "geometry": { "type": "Point", "coordinates": [ 110.098681, 34.571801 ] } },
{ "type": "Feature", "properties": { "area": "延安市", "positionname": "高新一小", "stationcode": "610600059", "latitude": "36.61055556", "longitude": "109.5055556", "stationattri": 0.0, "unifiedcode": null, "unifiedcode_p": 610600000000.0, "ctime": null, "ptype": 0.0 }, "geometry": { "type": "Point", "coordinates": [ 109.5055556, 36.61055556 ] } },
{ "type": "Feature", "properties": { "area": "延安市", "positionname": "药监局", "stationcode": "610600001", "latitude": "36.62944444", "longitude": "109.4075", "stationattri": 0.0, "unifiedcode": null, "unifiedcode_p": 610600000000.0, "ctime": null, "ptype": 0.0 }, "geometry": { "type": "Point", "coordinates": [ 109.4075, 36.62944444 ] } },
{ "type": "Feature", "properties": { "area": "延安市", "positionname": "九龙幼儿园", "stationcode": "610600052", "latitude": "36.60277778", "longitude": "109.4761111", "stationattri": 0.0, "unifiedcode": null, "unifiedcode_p": 610600000000.0, "ctime": null, "ptype": 0.0 }, "geometry": { "type": "Point", "coordinates": [ 109.4761111, 36.60277778 ] } },
{ "type": "Feature", "properties": { "area": "子长县", "positionname": "华州区政府", "stationcode": "610623051", "latitude": "37.1411", "longitude": "109.6656", "stationattri": 1.0, "unifiedcode": null, "unifiedcode_p": 610600000000.0, "ctime": null, "ptype": 1.0 }, "geometry": { "type": "Point", "coordinates": [ 109.6656, 37.1411 ] } },
{ "type": "Feature", "properties": { "area": "延安市", "positionname": "潼关县政府", "stationcode": "610600062", "latitude": "36.5786", "longitude": "109.4809", "stationattri": 0.0, "unifiedcode": null, "unifiedcode_p": 610600000000.0, "ctime": null, "ptype": 0.0 }, "geometry": { "type": "Point", "coordinates": [ 109.4809, 36.5786 ] } },
{ "type": "Feature", "properties": { "area": "延川县", "positionname": "澄城县政府", "stationcode": "610622051", "latitude": "36.87722222", "longitude": "110.1875", "stationattri": 1.0, "unifiedcode": 610622000000.0, "unifiedcode_p": 610600000000.0, "ctime": null, "ptype": 1.0 }, "geometry": { "type": "Point", "coordinates": [ 110.1875, 36.87722222 ] } },
{ "type": "Feature", "properties": { "area": "安塞县", "positionname": "蒲城县政府", "stationcode": "610624051", "latitude": "36.86305555", "longitude": "109.3261111", "stationattri": 1.0, "unifiedcode": 610624000000.0, "unifiedcode_p": 610600000000.0, "ctime": null, "ptype": 1.0 }, "geometry": { "type": "Point", "coordinates": [ 109.3261111, 36.86305555 ] } },
{ "type": "Feature", "properties": { "area": "志丹县", "positionname": "白水县人大", "stationcode": "610625051", "latitude": "36.82222222", "longitude": "108.7683333", "stationattri": 1.0, "unifiedcode": 610625000000.0, "unifiedcode_p": 610600000000.0, "ctime": null, "ptype": 1.0 }, "geometry": { "type": "Point", "coordinates": [ 108.7683333, 36.82222222 ] } },
{ "type": "Feature", "properties": { "area": "甘泉县", "positionname": "富平县档案局", "stationcode": "610627051", "latitude": "36.27055556", "longitude": "109.3536111", "stationattri": 1.0, "unifiedcode": 610627000000.0, "unifiedcode_p": 610600000000.0, "ctime": null, "ptype": 1.0 }, "geometry": { "type": "Point", "coordinates": [ 109.3536111, 36.27055556 ] } },
{ "type": "Feature", "properties": { "area": "富县", "positionname": "华阴市政府", "stationcode": "610628051", "latitude": "35.99527778", "longitude": "109.3788889", "stationattri": 1.0, "unifiedcode": 610628000000.0, "unifiedcode_p": 610600000000.0, "ctime": null, "ptype": 1.0 }, "geometry": { "type": "Point", "coordinates": [ 109.3788889, 35.99527778 ] } },
{ "type": "Feature", "properties": { "area": "洛川县", "positionname": "百米大道", "stationcode": "610629051", "latitude": "35.76166666", "longitude": "109.4294444", "stationattri": 1.0, "unifiedcode": 610629000000.0, "unifiedcode_p": 610600000000.0, "ctime": null, "ptype": 1.0 }, "geometry": { "type": "Point", "coordinates": [ 109.4294444, 35.76166666 ] } },
{ "type": "Feature", "properties": { "area": "宜川县", "positionname": "枣园(对照点)", "stationcode": "610630051", "latitude": "36.055503", "longitude": "110.179086", "stationattri": 1.0, "unifiedcode": 610630000000.0, "unifiedcode_p": 610600000000.0, "ctime": null, "ptype": 1.0 }, "geometry": { "type": "Point", "coordinates": [ 110.179086, 36.055503 ] } },
{ "type": "Feature", "properties": { "area": "黄龙县", "positionname": "延大医附院", "stationcode": "610631051", "latitude": "35.58861111", "longitude": "109.8483333", "stationattri": 1.0, "unifiedcode": 610631000000.0, "unifiedcode_p": 610600000000.0, "ctime": null, "ptype": 1.0 }, "geometry": { "type": "Point", "coordinates": [ 109.8483333, 35.58861111 ] } },
{ "type": "Feature", "properties": { "area": "镇巴县", "positionname": "西北局旧址", "stationcode": "610728051", "latitude": "32.5375", "longitude": "107.8908", "stationattri": 1.0, "unifiedcode": null, "unifiedcode_p": 610700000000.0, "ctime": null, "ptype": 1.0 }, "geometry": { "type": "Point", "coordinates": [ 107.8908, 32.5375 ] } },
{ "type": "Feature", "properties": { "area": "汉中市", "positionname": "延长县环保局", "stationcode": "610700065", "latitude": "33.11388889", "longitude": "107.0088889", "stationattri": 0.0, "unifiedcode": null, "unifiedcode_p": 610700000000.0, "ctime": null, "ptype": 0.0 }, "geometry": { "type": "Point", "coordinates": [ 107.0088889, 33.11388889 ] } },
{ "type": "Feature", "properties": { "area": "汉中市", "positionname": "延川县城关小学教学楼", "stationcode": "610700004", "latitude": "33.18416667", "longitude": "106.9891667", "stationattri": 0.0, "unifiedcode": null, "unifiedcode_p": 610700000000.0, "ctime": null, "ptype": 0.0 }, "geometry": { "type": "Point", "coordinates": [ 106.9891667, 33.18416667 ] } },
{ "type": "Feature", "properties": { "area": "汉中市", "positionname": "志丹县政府", "stationcode": "610700056", "latitude": "33.07055556", "longitude": "107.0152778", "stationattri": 0.0, "unifiedcode": null, "unifiedcode_p": 610700000000.0, "ctime": null, "ptype": 0.0 }, "geometry": { "type": "Point", "coordinates": [ 107.0152778, 33.07055556 ] } },
{ "type": "Feature", "properties": { "area": "镇巴县", "positionname": "吴起县环保局", "stationcode": "610728052", "latitude": "32.545833", "longitude": "107.885278", "stationattri": 1.0, "unifiedcode": null, "unifiedcode_p": 610700000000.0, "ctime": null, "ptype": 1.0 }, "geometry": { "type": "Point", "coordinates": [ 107.885278, 32.545833 ] } },
{ "type": "Feature", "properties": { "area": "汉台区", "positionname": "甘泉县环保局", "stationcode": "610702051", "latitude": "33.045", "longitude": "107.0561111", "stationattri": 1.0, "unifiedcode": 610702000000.0, "unifiedcode_p": 610700000000.0, "ctime": null, "ptype": 1.0 }, "geometry": { "type": "Point", "coordinates": [ 107.0561111, 33.045 ] } },
{ "type": "Feature", "properties": { "area": "洋县", "positionname": "黄龙县旅游局", "stationcode": "610723051", "latitude": "33.225", "longitude": "107.5413889", "stationattri": 1.0, "unifiedcode": 610723000000.0, "unifiedcode_p": 610700000000.0, "ctime": null, "ptype": 1.0 }, "geometry": { "type": "Point", "coordinates": [ 107.5413889, 33.225 ] } },
{ "type": "Feature", "properties": { "area": "勉县", "positionname": "镇巴县监测站", "stationcode": "610725051", "latitude": "33.15416667", "longitude": "106.6691667", "stationattri": 1.0, "unifiedcode": 610725000000.0, "unifiedcode_p": 610700000000.0, "ctime": null, "ptype": 1.0 }, "geometry": { "type": "Point", "coordinates": [ 106.6691667, 33.15416667 ] } },
{ "type": "Feature", "properties": { "area": "勉县", "positionname": "鑫源开发区", "stationcode": "610725052", "latitude": "33.144731", "longitude": "106.701308", "stationattri": 1.0, "unifiedcode": 610725000000.0, "unifiedcode_p": 610700000000.0, "ctime": null, "ptype": 1.0 }, "geometry": { "type": "Point", "coordinates": [ 106.701308, 33.144731 ] } },
{ "type": "Feature", "properties": { "area": "宁强县", "positionname": "南郑大河坎水厂", "stationcode": "610726052", "latitude": "32.807793", "longitude": "106.224067", "stationattri": 1.0, "unifiedcode": 610726000000.0, "unifiedcode_p": 610700000000.0, "ctime": null, "ptype": 1.0 }, "geometry": { "type": "Point", "coordinates": [ 106.224067, 32.807793 ] } },
{ "type": "Feature", "properties": { "area": "略阳县", "positionname": "汉中市监测站", "stationcode": "610727051", "latitude": "33.33111111", "longitude": "106.1555556", "stationattri": 1.0, "unifiedcode": 610727000000.0, "unifiedcode_p": 610700000000.0, "ctime": null, "ptype": 1.0 }, "geometry": { "type": "Point", "coordinates": [ 106.1555556, 33.33111111 ] } },
{ "type": "Feature", "properties": { "area": "留坝县", "positionname": "镇巴县党校", "stationcode": "610729051", "latitude": "33.62", "longitude": "106.9161111", "stationattri": 1.0, "unifiedcode": 610729000000.0, "unifiedcode_p": 610700000000.0, "ctime": null, "ptype": 1.0 }, "geometry": { "type": "Point", "coordinates": [ 106.9161111, 33.62 ] } },
{ "type": "Feature", "properties": { "area": "留坝县", "positionname": "城投公司", "stationcode": "610729052", "latitude": "33.610961", "longitude": "106.9263", "stationattri": 1.0, "unifiedcode": 610729000000.0, "unifiedcode_p": 610700000000.0, "ctime": null, "ptype": 1.0 }, "geometry": { "type": "Point", "coordinates": [ 106.9263, 33.610961 ] } },
{ "type": "Feature", "properties": { "area": "佛坪县", "positionname": "南郑县环保局", "stationcode": "610730051", "latitude": "33.51805556", "longitude": "107.9830556", "stationattri": 1.0, "unifiedcode": 610730000000.0, "unifiedcode_p": 610700000000.0, "ctime": null, "ptype": 1.0 }, "geometry": { "type": "Point", "coordinates": [ 107.9830556, 33.51805556 ] } },
{ "type": "Feature", "properties": { "area": "榆林市", "positionname": "朝阳中学", "stationcode": "610800001", "latitude": "38.33083333", "longitude": "109.7058333", "stationattri": 0.0, "unifiedcode": null, "unifiedcode_p": 610800000000.0, "ctime": null, "ptype": 0.0 }, "geometry": { "type": "Point", "coordinates": [ 109.7058333, 38.33083333 ] } },
{ "type": "Feature", "properties": { "area": "榆林市", "positionname": "洋县政府", "stationcode": "610800402", "latitude": "38.28388889", "longitude": "109.7288889", "stationattri": 0.0, "unifiedcode": null, "unifiedcode_p": 610800000000.0, "ctime": null, "ptype": 0.0 }, "geometry": { "type": "Point", "coordinates": [ 109.7288889, 38.28388889 ] } },
{ "type": "Feature", "properties": { "area": "榆林市", "positionname": "西乡四中", "stationcode": "610800401", "latitude": "38.29111111", "longitude": "109.7455556", "stationattri": 0.0, "unifiedcode": null, "unifiedcode_p": 610800000000.0, "ctime": null, "ptype": 0.0 }, "geometry": { "type": "Point", "coordinates": [ 109.7455556, 38.29111111 ] } },
{ "type": "Feature", "properties": { "area": "神木市", "positionname": "西乡县监测站", "stationcode": "610881052", "latitude": "38.891436", "longitude": "110.464667", "stationattri": 1.0, "unifiedcode": 610881000000.0, "unifiedcode_p": 610800000000.0, "ctime": null, "ptype": 1.0 }, "geometry": { "type": "Point", "coordinates": [ 110.464667, 38.891436 ] } },
{ "type": "Feature", "properties": { "area": "府谷县", "positionname": "勉县政府", "stationcode": "610822052", "latitude": "39.014553", "longitude": "111.012553", "stationattri": 1.0, "unifiedcode": 610822000000.0, "unifiedcode_p": 610800000000.0, "ctime": null, "ptype": 1.0 }, "geometry": { "type": "Point", "coordinates": [ 111.012553, 39.014553 ] } },
{ "type": "Feature", "properties": { "area": "府谷县", "positionname": "勉县旧州幼儿园", "stationcode": "610822051", "latitude": "39.058419", "longitude": "111.051845", "stationattri": 1.0, "unifiedcode": 610822000000.0, "unifiedcode_p": 610800000000.0, "ctime": null, "ptype": 1.0 }, "geometry": { "type": "Point", "coordinates": [ 111.051845, 39.058419 ] } },
{ "type": "Feature", "properties": { "area": "靖边县", "positionname": "宁强农业局", "stationcode": "610824051", "latitude": "37.6075", "longitude": "108.8066667", "stationattri": 1.0, "unifiedcode": 610824000000.0, "unifiedcode_p": 610800000000.0, "ctime": null, "ptype": 1.0 }, "geometry": { "type": "Point", "coordinates": [ 108.8066667, 37.6075 ] } },
{ "type": "Feature", "properties": { "area": "定边县", "positionname": "略阳县妇幼保健院", "stationcode": "610825051", "latitude": "37.59305556", "longitude": "107.5955556", "stationattri": 1.0, "unifiedcode": 610825000000.0, "unifiedcode_p": 610800000000.0, "ctime": null, "ptype": 1.0 }, "geometry": { "type": "Point", "coordinates": [ 107.5955556, 37.59305556 ] } },
{ "type": "Feature", "properties": { "area": "绥德县", "positionname": "留坝县监测站", "stationcode": "610826051", "latitude": "37.50138889", "longitude": "110.2669444", "stationattri": 1.0, "unifiedcode": 610826000000.0, "unifiedcode_p": 610800000000.0, "ctime": null, "ptype": 1.0 }, "geometry": { "type": "Point", "coordinates": [ 110.2669444, 37.50138889 ] } },
{ "type": "Feature", "properties": { "area": "米脂县", "positionname": "留坝县污水处理厂", "stationcode": "610827051", "latitude": "37.7625", "longitude": "110.1666667", "stationattri": 1.0, "unifiedcode": 610827000000.0, "unifiedcode_p": 610800000000.0, "ctime": null, "ptype": 1.0 }, "geometry": { "type": "Point", "coordinates": [ 110.1666667, 37.7625 ] } },
{ "type": "Feature", "properties": { "area": "佳县", "positionname": "佛坪县环保局", "stationcode": "610828051", "latitude": "38.01555556", "longitude": "110.4952778", "stationattri": 1.0, "unifiedcode": 610828000000.0, "unifiedcode_p": 610800000000.0, "ctime": null, "ptype": 1.0 }, "geometry": { "type": "Point", "coordinates": [ 110.4952778, 38.01555556 ] } },
{ "type": "Feature", "properties": { "area": "吴堡县", "positionname": "红石峡森林公园(对照点)", "stationcode": "610829052", "latitude": "37.449039", "longitude": "110.702125", "stationattri": 1.0, "unifiedcode": 610829000000.0, "unifiedcode_p": 610800000000.0, "ctime": null, "ptype": 1.0 }, "geometry": { "type": "Point", "coordinates": [ 110.702125, 37.449039 ] } },
{ "type": "Feature", "properties": { "area": "清涧县", "positionname": "榆林市实验中学", "stationcode": "610830051", "latitude": "37.10055556", "longitude": "110.1094444", "stationattri": 1.0, "unifiedcode": 610830000000.0, "unifiedcode_p": 610800000000.0, "ctime": null, "ptype": 1.0 }, "geometry": { "type": "Point", "coordinates": [ 110.1094444, 37.10055556 ] } },
{ "type": "Feature", "properties": { "area": "子洲县", "positionname": "世纪广场", "stationcode": "610831051", "latitude": "37.61", "longitude": "110.0294444", "stationattri": 1.0, "unifiedcode": 610831000000.0, "unifiedcode_p": 610800000000.0, "ctime": null, "ptype": 1.0 }, "geometry": { "type": "Point", "coordinates": [ 110.0294444, 37.61 ] } },
{ "type": "Feature", "properties": { "area": "旬阳县", "positionname": "神木市第十一中学", "stationcode": "610928051", "latitude": "32.8352", "longitude": "109.3694", "stationattri": 1.0, "unifiedcode": null, "unifiedcode_p": 610900000000.0, "ctime": null, "ptype": 1.0 }, "geometry": { "type": "Point", "coordinates": [ 109.3694, 32.8352 ] } },
{ "type": "Feature", "properties": { "area": "安康市", "positionname": "转型管委会", "stationcode": "610900403", "latitude": "32.6975", "longitude": "109.0072222", "stationattri": 0.0, "unifiedcode": null, "unifiedcode_p": 610900000000.0, "ctime": null, "ptype": 0.0 }, "geometry": { "type": "Point", "coordinates": [ 109.0072222, 32.6975 ] } },
{ "type": "Feature", "properties": { "area": "安康市", "positionname": "府谷县环保局", "stationcode": "610900001", "latitude": "33.537276", "longitude": "110.879624", "stationattri": 0.0, "unifiedcode": null, "unifiedcode_p": 610900000000.0, "ctime": null, "ptype": 0.0 }, "geometry": { "type": "Point", "coordinates": [ 110.879624, 33.537276 ] } },
{ "type": "Feature", "properties": { "area": "汉阴县", "positionname": "靖边县老环保局", "stationcode": "610921051", "latitude": "32.896614", "longitude": "108.514711", "stationattri": 1.0, "unifiedcode": 610921000000.0, "unifiedcode_p": 610900000000.0, "ctime": null, "ptype": 1.0 }, "geometry": { "type": "Point", "coordinates": [ 108.514711, 32.896614 ] } },
{ "type": "Feature", "properties": { "area": "石泉县", "positionname": "定边县第四中学", "stationcode": "610922051", "latitude": "33.046374", "longitude": "108.256391", "stationattri": 1.0, "unifiedcode": 610922000000.0, "unifiedcode_p": 610900000000.0, "ctime": null, "ptype": 1.0 }, "geometry": { "type": "Point", "coordinates": [ 108.256391, 33.046374 ] } },
{ "type": "Feature", "properties": { "area": "宁陕县", "positionname": "绥德县环保局", "stationcode": "610923051", "latitude": "33.315996", "longitude": "108.313923", "stationattri": 1.0, "unifiedcode": 610923000000.0, "unifiedcode_p": 610900000000.0, "ctime": null, "ptype": 1.0 }, "geometry": { "type": "Point", "coordinates": [ 108.313923, 33.315996 ] } },
{ "type": "Feature", "properties": { "area": "紫阳县", "positionname": "米脂县环保局", "stationcode": "610924051", "latitude": "32.530441", "longitude": "108.543501", "stationattri": 1.0, "unifiedcode": 610924000000.0, "unifiedcode_p": 610900000000.0, "ctime": null, "ptype": 1.0 }, "geometry": { "type": "Point", "coordinates": [ 108.543501, 32.530441 ] } },
{ "type": "Feature", "properties": { "area": "岚皋县", "positionname": "佳县环保局", "stationcode": "610925051", "latitude": "32.313185", "longitude": "108.906831", "stationattri": 1.0, "unifiedcode": 610925000000.0, "unifiedcode_p": 610900000000.0, "ctime": null, "ptype": 1.0 }, "geometry": { "type": "Point", "coordinates": [ 108.906831, 32.313185 ] } },
{ "type": "Feature", "properties": { "area": "白河县", "positionname": "第三完全小学", "stationcode": "610929051", "latitude": "32.81305556", "longitude": "110.11", "stationattri": 1.0, "unifiedcode": 610929000000.0, "unifiedcode_p": 610900000000.0, "ctime": null, "ptype": 1.0 }, "geometry": { "type": "Point", "coordinates": [ 110.11, 32.81305556 ] } },
{ "type": "Feature", "properties": { "area": "柞水县", "positionname": "清涧县城关镇派出所", "stationcode": "611026051", "latitude": "33.69081", "longitude": "109.11098", "stationattri": 1.0, "unifiedcode": null, "unifiedcode_p": 611000000000.0, "ctime": null, "ptype": 1.0 }, "geometry": { "type": "Point", "coordinates": [ 109.11098, 33.69081 ] } },
{ "type": "Feature", "properties": { "area": "商洛市", "positionname": "子洲县政府", "stationcode": "611000401", "latitude": "33.87138889", "longitude": "109.9152778", "stationattri": 0.0, "unifiedcode": null, "unifiedcode_p": 611000000000.0, "ctime": null, "ptype": 0.0 }, "geometry": { "type": "Point", "coordinates": [ 109.9152778, 33.87138889 ] } },
{ "type": "Feature", "properties": { "area": "商洛市", "positionname": "财政局", "stationcode": "611000403", "latitude": "33.8471", "longitude": "109.9643", "stationattri": 0.0, "unifiedcode": null, "unifiedcode_p": 611000000000.0, "ctime": null, "ptype": 0.0 }, "geometry": { "type": "Point", "coordinates": [ 109.9643, 33.8471 ] } },
{ "type": "Feature", "properties": { "area": "洛南县", "positionname": "汉滨区检察院", "stationcode": "611021052", "latitude": "34.084017", "longitude": "110.136584", "stationattri": 1.0, "unifiedcode": 611021000000.0, "unifiedcode_p": 611000000000.0, "ctime": null, "ptype": 1.0 }, "geometry": { "type": "Point", "coordinates": [ 110.136584, 34.084017 ] } },
{ "type": "Feature", "properties": { "area": "洛南县", "positionname": "香溪洞(对照点)", "stationcode": "611021051", "latitude": "34.09305556", "longitude": "110.15", "stationattri": 1.0, "unifiedcode": 611021000000.0, "unifiedcode_p": 611000000000.0, "ctime": null, "ptype": 1.0 }, "geometry": { "type": "Point", "coordinates": [ 110.15, 34.09305556 ] } },
{ "type": "Feature", "properties": { "area": "丹凤县  ", "positionname": "汉阴县环保局", "stationcode": "611022052", "latitude": "33.69777", "longitude": "110.3175", "stationattri": 1.0, "unifiedcode": 611022000000.0, "unifiedcode_p": 611000000000.0, "ctime": null, "ptype": 1.0 }, "geometry": { "type": "Point", "coordinates": [ 110.3175, 33.69777 ] } },
{ "type": "Feature", "properties": { "area": "商南县", "positionname": "宁陕县环保局", "stationcode": "611023051", "latitude": "33.53222222", "longitude": "110.8677778", "stationattri": 1.0, "unifiedcode": 611023000000.0, "unifiedcode_p": 611000000000.0, "ctime": null, "ptype": 1.0 }, "geometry": { "type": "Point", "coordinates": [ 110.8677778, 33.53222222 ] } },
{ "type": "Feature", "properties": { "area": "镇安县", "positionname": "紫阳县气象局", "stationcode": "611025051", "latitude": "33.42666667", "longitude": "109.1441667", "stationattri": 1.0, "unifiedcode": 611025000000.0, "unifiedcode_p": 611000000000.0, "ctime": null, "ptype": 1.0 }, "geometry": { "type": "Point", "coordinates": [ 109.1441667, 33.42666667 ] } },
{ "type": "Feature", "properties": { "area": "西咸新区", "positionname": "岚皋县政府服务中心", "stationcode": "612000402", "latitude": "34.46", "longitude": "108.7108", "stationattri": 0.0, "unifiedcode": 618000000000.0, "unifiedcode_p": 610100000000.0, "ctime": null, "ptype": 0.0 }, "geometry": { "type": "Point", "coordinates": [ 108.7108, 34.46 ] } },
{ "type": "Feature", "properties": { "area": "西咸新区", "positionname": "平利县民政局", "stationcode": "612000405", "latitude": "34.2631", "longitude": "108.7697", "stationattri": 1.0, "unifiedcode": 618000000000.0, "unifiedcode_p": 610100000000.0, "ctime": null, "ptype": 1.0 }, "geometry": { "type": "Point", "coordinates": [ 108.7697, 34.2631 ] } },
{ "type": "Feature", "properties": { "area": "西咸新区", "positionname": "白河县烈士陵园", "stationcode": "612000404", "latitude": "34.4978", "longitude": "108.9387", "stationattri": 0.0, "unifiedcode": 618000000000.0, "unifiedcode_p": 610100000000.0, "ctime": null, "ptype": 0.0 }, "geometry": { "type": "Point", "coordinates": [ 108.9387, 34.4978 ] } },
{ "type": "Feature", "properties": { "area": "西咸新区", "positionname": "商洛市监测站", "stationcode": "612000401", "latitude": "34.29701", "longitude": "108.70998", "stationattri": 0.0, "unifiedcode": 618000000000.0, "unifiedcode_p": 610100000000.0, "ctime": null, "ptype": 0.0 }, "geometry": { "type": "Point", "coordinates": [ 108.70998, 34.29701 ] } },
{ "type": "Feature", "properties": { "area": "韩城市", "positionname": "商州区中学", "stationcode": "613000402", "latitude": "35.457791", "longitude": "110.453351", "stationattri": 1.0, "unifiedcode": 610581010000.0, "unifiedcode_p": 610581000000.0, "ctime": null, "ptype": 1.0 }, "geometry": { "type": "Point", "coordinates": [ 110.453351, 35.457791 ] } },
{ "type": "Feature", "properties": { "area": "韩城市", "positionname": "西寺", "stationcode": "613000401", "latitude": "35.4779", "longitude": "110.4376", "stationattri": 1.0, "unifiedcode": 610581010000.0, "unifiedcode_p": 610581000000.0, "ctime": null, "ptype": 1.0 }, "geometry": { "type": "Point", "coordinates": [ 110.4376, 35.4779 ] } },
{ "type": "Feature", "properties": { "area": "凤县", "positionname": "洛南县洛南中学", "stationcode": "610330052", "latitude": "33.9089", "longitude": "106.5278", "stationattri": 1.0, "unifiedcode": 610330000000.0, "unifiedcode_p": 610300000000.0, "ctime": null, "ptype": 1.0 }, "geometry": { "type": "Point", "coordinates": [ 106.5278, 33.9089 ] } },
{ "type": "Feature", "properties": { "area": "杨凌区", "positionname": "丹凤县环保局", "stationcode": "610403052", "latitude": "34.26305556", "longitude": "108.0930556", "stationattri": 1.0, "unifiedcode": 610403010000.0, "unifiedcode_p": 610400000000.0, "ctime": null, "ptype": 1.0 }, "geometry": { "type": "Point", "coordinates": [ 108.0930556, 34.26305556 ] } },
{ "type": "Feature", "properties": { "area": "杨凌区", "positionname": "丹凤县金山小区", "stationcode": "610403051", "latitude": "34.30777778", "longitude": "108.0366667", "stationattri": 1.0, "unifiedcode": 610403010000.0, "unifiedcode_p": 610400000000.0, "ctime": null, "ptype": 1.0 }, "geometry": { "type": "Point", "coordinates": [ 108.0366667, 34.30777778 ] } },
{ "type": "Feature", "properties": { "area": "新城区", "positionname": "商南县环保局", "stationcode": "1166C", "latitude": "34.26548686", "longitude": "108.9513407", "stationattri": 8.0, "unifiedcode": 610102000000.0, "unifiedcode_p": 610100000000.0, "ctime": null, "ptype": 8.0 }, "geometry": { "type": "Point", "coordinates": [ 108.9513407, 34.26548686 ] } },
{ "type": "Feature", "properties": { "area": "南郑区", "positionname": "洛川县振兴广场", "stationcode": "610721052", "latitude": "33.012661", "longitude": "106.950811", "stationattri": 1.0, "unifiedcode": 610721000000.0, "unifiedcode_p": 610700000000.0, "ctime": null, "ptype": 1.0 }, "geometry": { "type": "Point", "coordinates": [ 106.950811, 33.012661 ] } },
{ "type": "Feature", "properties": { "area": "新城区", "positionname": "镇安县环保局", "stationcode": "1167C", "latitude": "34.27097473", "longitude": "108.9618732", "stationattri": 8.0, "unifiedcode": 610102000000.0, "unifiedcode_p": 610100000000.0, "ctime": null, "ptype": 8.0 }, "geometry": { "type": "Point", "coordinates": [ 108.9618732, 34.27097473 ] } },
{ "type": "Feature", "properties": { "area": "新城区", "positionname": "北杜站", "stationcode": "1168C", "latitude": "34.29456551", "longitude": "108.9658786", "stationattri": 8.0, "unifiedcode": 610102000000.0, "unifiedcode_p": 610100000000.0, "ctime": null, "ptype": 8.0 }, "geometry": { "type": "Point", "coordinates": [ 108.9658786, 34.29456551 ] } },
{ "type": "Feature", "properties": { "area": "新城区", "positionname": "城市广场站", "stationcode": "1169C", "latitude": "34.28417109", "longitude": "108.9545853", "stationattri": 8.0, "unifiedcode": 610102000000.0, "unifiedcode_p": 610100000000.0, "ctime": null, "ptype": 8.0 }, "geometry": { "type": "Point", "coordinates": [ 108.9545853, 34.28417109 ] } },
{ "type": "Feature", "properties": { "area": "新城区", "positionname": "崇文塔站", "stationcode": "1170C", "latitude": "34.27730157", "longitude": "108.9629238", "stationattri": 8.0, "unifiedcode": 610102000000.0, "unifiedcode_p": 610100000000.0, "ctime": null, "ptype": 8.0 }, "geometry": { "type": "Point", "coordinates": [ 108.9629238, 34.27730157 ] } },
{ "type": "Feature", "properties": { "area": "新城区", "positionname": "泾干广场", "stationcode": "1171C", "latitude": "34.26948966", "longitude": "108.9816501", "stationattri": 8.0, "unifiedcode": 610102000000.0, "unifiedcode_p": 610100000000.0, "ctime": null, "ptype": 8.0 }, "geometry": { "type": "Point", "coordinates": [ 108.9816501, 34.26948966 ] } },
{ "type": "Feature", "properties": { "area": "新城区", "positionname": "沣东发展集团", "stationcode": "1172C", "latitude": "34.25297296", "longitude": "109.0175104", "stationattri": 8.0, "unifiedcode": 610102000000.0, "unifiedcode_p": 610100000000.0, "ctime": null, "ptype": 8.0 }, "geometry": { "type": "Point", "coordinates": [ 109.0175104, 34.25297296 ] } },
{ "type": "Feature", "properties": { "area": "碑林区", "positionname": "同德佳苑站", "stationcode": "1066C", "latitude": "34.26732737", "longitude": "108.9930078", "stationattri": 8.0, "unifiedcode": 610103000000.0, "unifiedcode_p": 610100000000.0, "ctime": null, "ptype": 8.0 }, "geometry": { "type": "Point", "coordinates": [ 108.9930078, 34.26732737 ] } },
{ "type": "Feature", "properties": { "area": "碑林区", "positionname": "韩城市金塔路", "stationcode": "1187C", "latitude": "34.25480313", "longitude": "108.943642", "stationattri": 8.0, "unifiedcode": 610103000000.0, "unifiedcode_p": 610100000000.0, "ctime": null, "ptype": 8.0 }, "geometry": { "type": "Point", "coordinates": [ 108.943642, 34.25480313 ] } },
{ "type": "Feature", "properties": { "area": "碑林区", "positionname": "凤凰广场", "stationcode": "1188C", "latitude": "34.23897939", "longitude": "108.9652693", "stationattri": 8.0, "unifiedcode": 610103000000.0, "unifiedcode_p": 610100000000.0, "ctime": null, "ptype": 8.0 }, "geometry": { "type": "Point", "coordinates": [ 108.9652693, 34.23897939 ] } },
{ "type": "Feature", "properties": { "area": "碑林区", "positionname": "秦川公司", "stationcode": "1189C", "latitude": "34.24385705", "longitude": "108.9463941", "stationattri": 8.0, "unifiedcode": 610103000000.0, "unifiedcode_p": 610100000000.0, "ctime": null, "ptype": 8.0 }, "geometry": { "type": "Point", "coordinates": [ 108.9463941, 34.24385705 ] } },
{ "type": "Feature", "properties": { "area": "碑林区", "positionname": "现代农业产业园", "stationcode": "1190C", "latitude": "34.25551842", "longitude": "108.9881685", "stationattri": 8.0, "unifiedcode": 610103000000.0, "unifiedcode_p": 610100000000.0, "ctime": null, "ptype": 8.0 }, "geometry": { "type": "Point", "coordinates": [ 108.9881685, 34.25551842 ] } },
{ "type": "Feature", "properties": { "area": "碑林区", "positionname": "胡家庙街办", "stationcode": "1191C", "latitude": "34.24711602", "longitude": "108.9754165", "stationattri": 8.0, "unifiedcode": 610103000000.0, "unifiedcode_p": 610100000000.0, "ctime": null, "ptype": 8.0 }, "geometry": { "type": "Point", "coordinates": [ 108.9754165, 34.24711602 ] } },
{ "type": "Feature", "properties": { "area": "碑林区", "positionname": "西一路街办", "stationcode": "1192C", "latitude": "34.25421853", "longitude": "108.9649801", "stationattri": 8.0, "unifiedcode": 610103000000.0, "unifiedcode_p": 610100000000.0, "ctime": null, "ptype": 8.0 }, "geometry": { "type": "Point", "coordinates": [ 108.9649801, 34.25421853 ] } },
{ "type": "Feature", "properties": { "area": "莲湖区", "positionname": "中山门街办", "stationcode": "1065C", "latitude": "34.27310035", "longitude": "108.9052841", "stationattri": 8.0, "unifiedcode": 610104000000.0, "unifiedcode_p": 610100000000.0, "ctime": null, "ptype": 8.0 }, "geometry": { "type": "Point", "coordinates": [ 108.9052841, 34.27310035 ] } },
{ "type": "Feature", "properties": { "area": "莲湖区", "positionname": "自强路街办", "stationcode": "1179C", "latitude": "34.25417228", "longitude": "108.9219778", "stationattri": 8.0, "unifiedcode": 610104000000.0, "unifiedcode_p": 610100000000.0, "ctime": null, "ptype": 8.0 }, "geometry": { "type": "Point", "coordinates": [ 108.9219778, 34.25417228 ] } },
{ "type": "Feature", "properties": { "area": "莲湖区", "positionname": "解放门街办", "stationcode": "1180C", "latitude": "34.28265387", "longitude": "108.9407415", "stationattri": 8.0, "unifiedcode": 610104000000.0, "unifiedcode_p": 610100000000.0, "ctime": null, "ptype": 8.0 }, "geometry": { "type": "Point", "coordinates": [ 108.9407415, 34.28265387 ] } },
{ "type": "Feature", "properties": { "area": "莲湖区", "positionname": "长乐西路街办", "stationcode": "1181C", "latitude": "34.2441233", "longitude": "108.8912488", "stationattri": 8.0, "unifiedcode": 610104000000.0, "unifiedcode_p": 610100000000.0, "ctime": null, "ptype": 8.0 }, "geometry": { "type": "Point", "coordinates": [ 108.8912488, 34.2441233 ] } },
{ "type": "Feature", "properties": { "area": "莲湖区", "positionname": "韩森寨街办", "stationcode": "1182C", "latitude": "34.27368389", "longitude": "108.9247697", "stationattri": 8.0, "unifiedcode": 610104000000.0, "unifiedcode_p": 610100000000.0, "ctime": null, "ptype": 8.0 }, "geometry": { "type": "Point", "coordinates": [ 108.9247697, 34.27368389 ] } },
{ "type": "Feature", "properties": { "area": "莲湖区", "positionname": "长乐坊街办", "stationcode": "1183C", "latitude": "34.25953331", "longitude": "108.8954933", "stationattri": 8.0, "unifiedcode": 610104000000.0, "unifiedcode_p": 610100000000.0, "ctime": null, "ptype": 8.0 }, "geometry": { "type": "Point", "coordinates": [ 108.8954933, 34.25953331 ] } },
{ "type": "Feature", "properties": { "area": "莲湖区", "positionname": "张家村街办", "stationcode": "1184C", "latitude": "34.2802764", "longitude": "108.9249174", "stationattri": 8.0, "unifiedcode": 610104000000.0, "unifiedcode_p": 610100000000.0, "ctime": null, "ptype": 8.0 }, "geometry": { "type": "Point", "coordinates": [ 108.9249174, 34.2802764 ] } },
{ "type": "Feature", "properties": { "area": "莲湖区", "positionname": "南院门街办", "stationcode": "1185C", "latitude": "34.25248882", "longitude": "108.8824948", "stationattri": 8.0, "unifiedcode": 610104000000.0, "unifiedcode_p": 610100000000.0, "ctime": null, "ptype": 8.0 }, "geometry": { "type": "Point", "coordinates": [ 108.8824948, 34.25248882 ] } },
{ "type": "Feature", "properties": { "area": "雁塔区", "positionname": "长安路街办", "stationcode": "1202C", "latitude": "34.23526284", "longitude": "108.9994782", "stationattri": 8.0, "unifiedcode": 610113000000.0, "unifiedcode_p": 610100000000.0, "ctime": null, "ptype": 8.0 }, "geometry": { "type": "Point", "coordinates": [ 108.9994782, 34.23526284 ] } },
{ "type": "Feature", "properties": { "area": "雁塔区", "positionname": "东关南街街办", "stationcode": "1203C", "latitude": "34.21254626", "longitude": "108.9909415", "stationattri": 8.0, "unifiedcode": 610113000000.0, "unifiedcode_p": 610100000000.0, "ctime": null, "ptype": 8.0 }, "geometry": { "type": "Point", "coordinates": [ 108.9909415, 34.21254626 ] } },
{ "type": "Feature", "properties": { "area": "雁塔区", "positionname": "太乙路街办", "stationcode": "1205C", "latitude": "34.22714276", "longitude": "108.9543384", "stationattri": 8.0, "unifiedcode": 610113000000.0, "unifiedcode_p": 610100000000.0, "ctime": null, "ptype": 8.0 }, "geometry": { "type": "Point", "coordinates": [ 108.9543384, 34.22714276 ] } },
{ "type": "Feature", "properties": { "area": "雁塔区", "positionname": "柏树林街办", "stationcode": "1206C", "latitude": "34.2115974", "longitude": "108.9292838", "stationattri": 8.0, "unifiedcode": 610113000000.0, "unifiedcode_p": 610100000000.0, "ctime": null, "ptype": 8.0 }, "geometry": { "type": "Point", "coordinates": [ 108.9292838, 34.2115974 ] } },
{ "type": "Feature", "properties": { "area": "雁塔区", "positionname": "环城西路街办", "stationcode": "1207C", "latitude": "34.24311932", "longitude": "108.8807057", "stationattri": 8.0, "unifiedcode": 610113000000.0, "unifiedcode_p": 610100000000.0, "ctime": null, "ptype": 8.0 }, "geometry": { "type": "Point", "coordinates": [ 108.8807057, 34.24311932 ] } },
{ "type": "Feature", "properties": { "area": "雁塔区", "positionname": "枣园街办", "stationcode": "1208C", "latitude": "34.18073241", "longitude": "108.8922016", "stationattri": 8.0, "unifiedcode": 610113000000.0, "unifiedcode_p": 610100000000.0, "ctime": null, "ptype": 8.0 }, "geometry": { "type": "Point", "coordinates": [ 108.8922016, 34.18073241 ] } },
{ "type": "Feature", "properties": { "area": "灞桥区", "positionname": "北关街办", "stationcode": "1067C", "latitude": "34.21227155", "longitude": "109.1330993", "stationattri": 8.0, "unifiedcode": 610111000000.0, "unifiedcode_p": 610100000000.0, "ctime": null, "ptype": 8.0 }, "geometry": { "type": "Point", "coordinates": [ 109.1330993, 34.21227155 ] } },
{ "type": "Feature", "properties": { "area": "灞桥区", "positionname": "西关街办", "stationcode": "1068C", "latitude": "34.20843234", "longitude": "109.1641824", "stationattri": 8.0, "unifiedcode": 610111000000.0, "unifiedcode_p": 610100000000.0, "ctime": null, "ptype": 8.0 }, "geometry": { "type": "Point", "coordinates": [ 109.1641824, 34.20843234 ] } },
{ "type": "Feature", "properties": { "area": "灞桥区", "positionname": "青年路街办", "stationcode": "1069C", "latitude": "34.21415554", "longitude": "109.0622874", "stationattri": 8.0, "unifiedcode": 610111000000.0, "unifiedcode_p": 610100000000.0, "ctime": null, "ptype": 8.0 }, "geometry": { "type": "Point", "coordinates": [ 109.0622874, 34.21415554 ] } },
{ "type": "Feature", "properties": { "area": "灞桥区", "positionname": "桃园街办", "stationcode": "1199C", "latitude": "34.33942976", "longitude": "109.1005059", "stationattri": 8.0, "unifiedcode": 610111000000.0, "unifiedcode_p": 610100000000.0, "ctime": null, "ptype": 8.0 }, "geometry": { "type": "Point", "coordinates": [ 109.1005059, 34.33942976 ] } },
{ "type": "Feature", "properties": { "area": "灞桥区", "positionname": "红庙坡街办", "stationcode": "1200C", "latitude": "34.27459753", "longitude": "109.0597954", "stationattri": 8.0, "unifiedcode": 610111000000.0, "unifiedcode_p": 610100000000.0, "ctime": null, "ptype": 8.0 }, "geometry": { "type": "Point", "coordinates": [ 109.0597954, 34.27459753 ] } },
{ "type": "Feature", "properties": { "area": "阎良区", "positionname": "土门街办", "stationcode": "1028C", "latitude": "34.67595084", "longitude": "109.2173397", "stationattri": 8.0, "unifiedcode": 610114000000.0, "unifiedcode_p": 610100000000.0, "ctime": null, "ptype": 8.0 }, "geometry": { "type": "Point", "coordinates": [ 109.2173397, 34.67595084 ] } },
{ "type": "Feature", "properties": { "area": "阎良区", "positionname": "小寨路街办", "stationcode": "1029C", "latitude": "34.63702042", "longitude": "109.3143906", "stationattri": 8.0, "unifiedcode": 610114000000.0, "unifiedcode_p": 610100000000.0, "ctime": null, "ptype": 8.0 }, "geometry": { "type": "Point", "coordinates": [ 109.3143906, 34.63702042 ] } },
{ "type": "Feature", "properties": { "area": "阎良区", "positionname": "等驾坡街办", "stationcode": "1030C", "latitude": "34.66028762", "longitude": "109.2372092", "stationattri": 8.0, "unifiedcode": 610114000000.0, "unifiedcode_p": 610100000000.0, "ctime": null, "ptype": 8.0 }, "geometry": { "type": "Point", "coordinates": [ 109.2372092, 34.66028762 ] } },
{ "type": "Feature", "properties": { "area": "阎良区", "positionname": "曲江街办", "stationcode": "1032C", "latitude": "34.65817833", "longitude": "109.4080585", "stationattri": 8.0, "unifiedcode": 610114000000.0, "unifiedcode_p": 610100000000.0, "ctime": null, "ptype": 8.0 }, "geometry": { "type": "Point", "coordinates": [ 109.4080585, 34.65817833 ] } },
{ "type": "Feature", "properties": { "area": "阎良区", "positionname": "长延堡街办", "stationcode": "1034C", "latitude": "34.66176911", "longitude": "109.2188472", "stationattri": 8.0, "unifiedcode": 610114000000.0, "unifiedcode_p": 610100000000.0, "ctime": null, "ptype": 8.0 }, "geometry": { "type": "Point", "coordinates": [ 109.2188472, 34.66176911 ] } },
{ "type": "Feature", "properties": { "area": "阎良区", "positionname": "鱼化工业园", "stationcode": "1154C", "latitude": "34.66119109", "longitude": "109.2746055", "stationattri": 8.0, "unifiedcode": 610114000000.0, "unifiedcode_p": 610100000000.0, "ctime": null, "ptype": 8.0 }, "geometry": { "type": "Point", "coordinates": [ 109.2746055, 34.66119109 ] } },
{ "type": "Feature", "properties": { "area": "", "positionname": "杜城街办(西沣办)", "stationcode": "1198C", "latitude": "34.200924", "longitude": "108.895712", "stationattri": 8.0, "unifiedcode": null, "unifiedcode_p": 610100000000.0, "ctime": null, "ptype": 8.0 }, "geometry": { "type": "Point", "coordinates": [ 108.895712, 34.200924 ] } },
{ "type": "Feature", "properties": { "area": "临潼区", "positionname": "洪庆街办", "stationcode": "1014C", "latitude": "34.39615881", "longitude": "109.2941733", "stationattri": 8.0, "unifiedcode": 610115000000.0, "unifiedcode_p": 610100000000.0, "ctime": null, "ptype": 8.0 }, "geometry": { "type": "Point", "coordinates": [ 109.2941733, 34.39615881 ] } },
{ "type": "Feature", "properties": { "area": "临潼区", "positionname": "狄寨街办", "stationcode": "1015C", "latitude": "34.51174722", "longitude": "109.1914528", "stationattri": 8.0, "unifiedcode": 610115000000.0, "unifiedcode_p": 610100000000.0, "ctime": null, "ptype": 8.0 }, "geometry": { "type": "Point", "coordinates": [ 109.1914528, 34.51174722 ] } },
{ "type": "Feature", "properties": { "area": "临潼区", "positionname": "红旗街办", "stationcode": "1017C", "latitude": "34.51602702", "longitude": "109.3184994", "stationattri": 8.0, "unifiedcode": 610115000000.0, "unifiedcode_p": 610100000000.0, "ctime": null, "ptype": 8.0 }, "geometry": { "type": "Point", "coordinates": [ 109.3184994, 34.51602702 ] } },
{ "type": "Feature", "properties": { "area": "临潼区", "positionname": "灞桥街办", "stationcode": "1035C", "latitude": "34.46706508", "longitude": "109.20092", "stationattri": 8.0, "unifiedcode": 610115000000.0, "unifiedcode_p": 610100000000.0, "ctime": null, "ptype": 8.0 }, "geometry": { "type": "Point", "coordinates": [ 109.20092, 34.46706508 ] } },
{ "type": "Feature", "properties": { "area": "临潼区", "positionname": "纺织城街办", "stationcode": "1036C", "latitude": "34.33859018", "longitude": "109.4136853", "stationattri": 8.0, "unifiedcode": 610115000000.0, "unifiedcode_p": 610100000000.0, "ctime": null, "ptype": 8.0 }, "geometry": { "type": "Point", "coordinates": [ 109.4136853, 34.33859018 ] } },
{ "type": "Feature", "properties": { "area": "临潼区", "positionname": "荆山开发区", "stationcode": "1038C", "latitude": "34.39334584", "longitude": "109.1433882", "stationattri": 8.0, "unifiedcode": 610115000000.0, "unifiedcode_p": 610100000000.0, "ctime": null, "ptype": 8.0 }, "geometry": { "type": "Point", "coordinates": [ 109.1433882, 34.39334584 ] } },
{ "type": "Feature", "properties": { "area": "临潼区", "positionname": "武屯街办", "stationcode": "1039C", "latitude": "34.47828646", "longitude": "109.3636029", "stationattri": 8.0, "unifiedcode": 610115000000.0, "unifiedcode_p": 610100000000.0, "ctime": null, "ptype": 8.0 }, "geometry": { "type": "Point", "coordinates": [ 109.3636029, 34.47828646 ] } },
{ "type": "Feature", "properties": { "area": "临潼区", "positionname": "关山街办", "stationcode": "1041C", "latitude": "34.4739561", "longitude": "109.2248284", "stationattri": 8.0, "unifiedcode": 610115000000.0, "unifiedcode_p": 610100000000.0, "ctime": null, "ptype": 8.0 }, "geometry": { "type": "Point", "coordinates": [ 109.2248284, 34.4739561 ] } },
{ "type": "Feature", "properties": { "area": "临潼区", "positionname": "振兴街办", "stationcode": "1042C", "latitude": "34.41390885", "longitude": "109.1811816", "stationattri": 8.0, "unifiedcode": 610115000000.0, "unifiedcode_p": 610100000000.0, "ctime": null, "ptype": 8.0 }, "geometry": { "type": "Point", "coordinates": [ 109.1811816, 34.41390885 ] } },
{ "type": "Feature", "properties": { "area": "临潼区", "positionname": "凤凰路街办", "stationcode": "1043C", "latitude": "34.37428754", "longitude": "109.2076817", "stationattri": 8.0, "unifiedcode": 610115000000.0, "unifiedcode_p": 610100000000.0, "ctime": null, "ptype": 8.0 }, "geometry": { "type": "Point", "coordinates": [ 109.2076817, 34.37428754 ] } },
{ "type": "Feature", "properties": { "area": "临潼区", "positionname": "新兴街办", "stationcode": "1044C", "latitude": "34.39377797", "longitude": "109.4364663", "stationattri": 8.0, "unifiedcode": 610115000000.0, "unifiedcode_p": 610100000000.0, "ctime": null, "ptype": 8.0 }, "geometry": { "type": "Point", "coordinates": [ 109.4364663, 34.39377797 ] } },
{ "type": "Feature", "properties": { "area": "临潼区", "positionname": "八所街办", "stationcode": "1045C", "latitude": "34.42345468", "longitude": "109.2703776", "stationattri": 8.0, "unifiedcode": 610115000000.0, "unifiedcode_p": 610100000000.0, "ctime": null, "ptype": 8.0 }, "geometry": { "type": "Point", "coordinates": [ 109.2703776, 34.42345468 ] } },
{ "type": "Feature", "properties": { "area": "临潼区", "positionname": "穆寨街办", "stationcode": "1046C", "latitude": "34.40291464", "longitude": "109.3843487", "stationattri": 8.0, "unifiedcode": 610115000000.0, "unifiedcode_p": 610100000000.0, "ctime": null, "ptype": 8.0 }, "geometry": { "type": "Point", "coordinates": [ 109.3843487, 34.40291464 ] } },
{ "type": "Feature", "properties": { "area": "临潼区", "positionname": "代王街办", "stationcode": "1047C", "latitude": "34.36944097", "longitude": "109.2663493", "stationattri": 8.0, "unifiedcode": 610115000000.0, "unifiedcode_p": 610100000000.0, "ctime": null, "ptype": 8.0 }, "geometry": { "type": "Point", "coordinates": [ 109.2663493, 34.36944097 ] } },
{ "type": "Feature", "properties": { "area": "临潼区", "positionname": "新市街办", "stationcode": "1048C", "latitude": "34.40752739", "longitude": "109.1362506", "stationattri": 8.0, "unifiedcode": 610115000000.0, "unifiedcode_p": 610100000000.0, "ctime": null, "ptype": 8.0 }, "geometry": { "type": "Point", "coordinates": [ 109.1362506, 34.40752739 ] } },
{ "type": "Feature", "properties": { "area": "临潼区", "positionname": "栎阳街办", "stationcode": "1049C", "latitude": "34.61716385", "longitude": "109.1424828", "stationattri": 8.0, "unifiedcode": 610115000000.0, "unifiedcode_p": 610100000000.0, "ctime": null, "ptype": 8.0 }, "geometry": { "type": "Point", "coordinates": [ 109.1424828, 34.61716385 ] } },
{ "type": "Feature", "properties": { "area": "临潼区", "positionname": "何寨街办", "stationcode": "1050C", "latitude": "34.55653343", "longitude": "109.385981", "stationattri": 8.0, "unifiedcode": 610115000000.0, "unifiedcode_p": 610100000000.0, "ctime": null, "ptype": 8.0 }, "geometry": { "type": "Point", "coordinates": [ 109.385981, 34.55653343 ] } },
{ "type": "Feature", "properties": { "area": "临潼区", "positionname": "渭北街办", "stationcode": "1051C", "latitude": "34.35041752", "longitude": "109.3276553", "stationattri": 8.0, "unifiedcode": 610115000000.0, "unifiedcode_p": 610100000000.0, "ctime": null, "ptype": 8.0 }, "geometry": { "type": "Point", "coordinates": [ 109.3276553, 34.35041752 ] } },
{ "type": "Feature", "properties": { "area": "临潼区", "positionname": "小金街办", "stationcode": "1052C", "latitude": "34.38370033", "longitude": "109.2795525", "stationattri": 8.0, "unifiedcode": 610115000000.0, "unifiedcode_p": 610100000000.0, "ctime": null, "ptype": 8.0 }, "geometry": { "type": "Point", "coordinates": [ 109.2795525, 34.38370033 ] } },
{ "type": "Feature", "properties": { "area": "临潼区", "positionname": "新区", "stationcode": "1053C", "latitude": "34.61616687", "longitude": "109.367618", "stationattri": 8.0, "unifiedcode": 610115000000.0, "unifiedcode_p": 610100000000.0, "ctime": null, "ptype": 8.0 }, "geometry": { "type": "Point", "coordinates": [ 109.367618, 34.61616687 ] } },
{ "type": "Feature", "properties": { "area": "临潼区", "positionname": "雨金街办", "stationcode": "1056C", "latitude": "34.33878685", "longitude": "109.1611753", "stationattri": 8.0, "unifiedcode": 610115000000.0, "unifiedcode_p": 610100000000.0, "ctime": null, "ptype": 8.0 }, "geometry": { "type": "Point", "coordinates": [ 109.1611753, 34.33878685 ] } },
{ "type": "Feature", "properties": { "area": "临潼区", "positionname": "任留街办", "stationcode": "1156C", "latitude": "34.4559435", "longitude": "109.1792958", "stationattri": 8.0, "unifiedcode": 610115000000.0, "unifiedcode_p": 610100000000.0, "ctime": null, "ptype": 8.0 }, "geometry": { "type": "Point", "coordinates": [ 109.1792958, 34.4559435 ] } },
{ "type": "Feature", "properties": { "area": "临潼区", "positionname": "行者街办", "stationcode": "1157C", "latitude": "34.38259968", "longitude": "109.2164812", "stationattri": 8.0, "unifiedcode": 610115000000.0, "unifiedcode_p": 610100000000.0, "ctime": null, "ptype": 8.0 }, "geometry": { "type": "Point", "coordinates": [ 109.2164812, 34.38259968 ] } },
{ "type": "Feature", "properties": { "area": "临潼区", "positionname": "骊山街办", "stationcode": "1158C", "latitude": "34.36016008", "longitude": "109.151084", "stationattri": 8.0, "unifiedcode": 610115000000.0, "unifiedcode_p": 610100000000.0, "ctime": null, "ptype": 8.0 }, "geometry": { "type": "Point", "coordinates": [ 109.151084, 34.36016008 ] } },
{ "type": "Feature", "properties": { "area": "高陵区", "positionname": "铁炉街办", "stationcode": "1002C", "latitude": "34.45839152", "longitude": "109.1494487", "stationattri": 8.0, "unifiedcode": 610117000000.0, "unifiedcode_p": 610100000000.0, "ctime": null, "ptype": 8.0 }, "geometry": { "type": "Point", "coordinates": [ 109.1494487, 34.45839152 ] } },
{ "type": "Feature", "properties": { "area": "高陵区", "positionname": "新丰街办", "stationcode": "1003C", "latitude": "34.44790763", "longitude": "109.1252506", "stationattri": 8.0, "unifiedcode": 610117000000.0, "unifiedcode_p": 610100000000.0, "ctime": null, "ptype": 8.0 }, "geometry": { "type": "Point", "coordinates": [ 109.1252506, 34.44790763 ] } },
{ "type": "Feature", "properties": { "area": "高陵区", "positionname": "马额街办", "stationcode": "1004C", "latitude": "34.49106216", "longitude": "109.0133949", "stationattri": 8.0, "unifiedcode": 610117000000.0, "unifiedcode_p": 610100000000.0, "ctime": null, "ptype": 8.0 }, "geometry": { "type": "Point", "coordinates": [ 109.0133949, 34.49106216 ] } },