{"type":"FeatureCollection", "features": [
{"type":"Feature","geometry":{"type":"Point","coordinates":[108.90361111100009,32.37916666700005]},"properties":{"OBJECTID":1,"CORP_ID":0,"CORP_CODE":"78365697-X","CORP_NAME":"康师傅（西安）饮品有限公司","AREA_CODE":"610162","PX":108.903611111,"PY":32.3791666667,"ADRESS":"尚稷路28号","FR":"黎振宜","TEL":"","CUSC_CODE":"9161013278365697XQ","PARENT_ARE":"610100","IS_ZDY":1,"IS_XKZ":1,"IS_ONLINE":0,"CORP_TYPE":3}},
{"type":"Feature","geometry":{"type":"Point","coordinates":[110.03853600000008,34.36158700000004]},"properties":{"OBJECTID":2,"CORP_ID":30,"CORP_CODE":"91611021-1","CORP_NAME":"洛南县九龙矿业有限公司","AREA_CODE":"611021","PX":110.038536,"PY":34.361587,"ADRESS":"洛南县石门镇黄龙铺村","FR":"杨英民","TEL":"13709180068","CUSC_CODE":"91611021790792101T","PARENT_ARE":"611000","IS_ZDY":0,"IS_XKZ":1,"IS_ONLINE":0,"CORP_TYPE":3}},
{"type":"Feature","geometry":{"type":"Point","coordinates":[105.97760000000005,33.336261111000056]},"properties":{"OBJECTID":3,"CORP_ID":42,"CORP_CODE":"75880757-X","CORP_NAME":"陕西邦田化工有限公司","AREA_CODE":"610727","PX":105.9776,"PY":33.3362611111,"ADRESS":"","FR":"高建平","TEL":"","CUSC_CODE":"9161072775880757X8","PARENT_ARE":"610700","IS_ZDY":0,"IS_XKZ":1,"IS_ONLINE":0,"CORP_TYPE":3}},
{"type":"Feature","geometry":{"type":"Point","coordinates":[109.28531111100006,32.85666111100005]},"properties":{"OBJECTID":4,"CORP_ID":49,"CORP_CODE":"-","CORP_NAME":"旬阳县恒源生物化工有限公司","AREA_CODE":"610928","PX":109.285311111,"PY":32.8566611111,"ADRESS":"旬阳县白柳镇生态工业园区28号","FR":"蒋松柏　","TEL":"","CUSC_CODE":"91610928732653226Y","PARENT_ARE":"610900","IS_ZDY":0,"IS_XKZ":1,"IS_ONLINE":0,"CORP_TYPE":3}},
{"type":"Feature","geometry":{"type":"Point","coordinates":[107.92972222200007,35.13583333300005]},"properties":{"OBJECTID":5,"CORP_ID":51,"CORP_CODE":"67154907-X","CORP_NAME":"大唐彬长发电有限责任公司","AREA_CODE":"610428","PX":107.929722222,"PY":35.1358333333,"ADRESS":"陕西省咸阳市长武县冉店乡","FR":"王润兴","TEL":"","CUSC_CODE":"9161000067154907XN","PARENT_ARE":"610400","IS_ZDY":1,"IS_XKZ":1,"IS_ONLINE":0,"CORP_TYPE":3}},
{"type":"Feature","geometry":{"type":"Point","coordinates":[106.53000000000009,34.52000000000004]},"properties":{"OBJECTID":6,"CORP_ID":52,"CORP_CODE":"-","CORP_NAME":"陕西和氏乳业集团有限公司","AREA_CODE":"610327","PX":106.53,"PY":34.52,"ADRESS":"陕西省宝鸡市陇县食品工业园区关和路9号","FR":"刘安让","TEL":"0917-3060088","CUSC_CODE":"91610327221553450R","PARENT_ARE":"610300","IS_ZDY":0,"IS_XKZ":1,"IS_ONLINE":0,"CORP_TYPE":3}},
{"type":"Feature","geometry":{"type":"Point","coordinates":[108.75813888900007,34.36620000000005]},"properties":{"OBJECTID":7,"CORP_ID":53,"CORP_CODE":"-","CORP_NAME":"咸阳际华新三零印染有限公司","AREA_CODE":"619903","PX":108.758138889,"PY":34.3662,"ADRESS":"陕西省咸阳市渭城区咸红路","FR":"尉隽","TEL":"","CUSC_CODE":"9161040066410585X1","PARENT_ARE":"619900","IS_ZDY":1,"IS_XKZ":1,"IS_ONLINE":1,"CORP_TYPE":3}},
{"type":"Feature","geometry":{"type":"Point","coordinates":[109.05677222200006,35.615944444000036]},"properties":{"OBJECTID":8,"CORP_ID":55,"CORP_CODE":"-","CORP_NAME":"陕西黄陵煤化工有限责任公司","AREA_CODE":"610632","PX":109.056772222,"PY":35.6159444444,"ADRESS":"陕西省延安市黄陵县店头镇","FR":"姚继峰","TEL":"","CUSC_CODE":"91610632694931810X","PARENT_ARE":"610600","IS_ZDY":1,"IS_XKZ":1,"IS_ONLINE":1,"CORP_TYPE":3}},
{"type":"Feature","geometry":{"type":"Point","coordinates":[106.66728888900008,33.13665000000003]},"properties":{"OBJECTID":9,"CORP_ID":60,"CORP_CODE":"-","CORP_NAME":"汉中华富新能源有限公司","AREA_CODE":"610725","PX":106.667288889,"PY":33.13665,"ADRESS":"陕钢集团汉中钢铁有限责任公司厂区内","FR":"仵博","TEL":"","CUSC_CODE":"91610700570658998G","PARENT_ARE":"610700","IS_ZDY":1,"IS_XKZ":1,"IS_ONLINE":1,"CORP_TYPE":1}},
{"type":"Feature","geometry":{"type":"Point","coordinates":[107.03300000000007,34.723700000000065]},"properties":{"OBJECTID":11,"CORP_ID":62,"CORP_CODE":"-","CORP_NAME":"千阳海螺水泥有限责任公司","AREA_CODE":"610328","PX":107.033,"PY":34.7237,"ADRESS":"新中村（未编门牌号）","FR":"范长虹","TEL":"","CUSC_CODE":"91610328684754187Q","PARENT_ARE":"610300","IS_ZDY":1,"IS_XKZ":1,"IS_ONLINE":1,"CORP_TYPE":1}},
{"type":"Feature","geometry":{"type":"Point","coordinates":[108.21513888900006,34.65286111100005]},"properties":{"OBJECTID":12,"CORP_ID":63,"CORP_CODE":"68799389-6","CORP_NAME":"乾县海螺水泥有限责任公司","AREA_CODE":"610424","PX":108.215138889,"PY":34.6528611111,"ADRESS":"冯东村","FR":"范长虹","TEL":"","CUSC_CODE":"916104246879938969","PARENT_ARE":"610400","IS_ZDY":1,"IS_XKZ":1,"IS_ONLINE":1,"CORP_TYPE":1}},
{"type":"Feature","geometry":{"type":"Point","coordinates":[107.05627700000008,33.083578000000045]},"properties":{"OBJECTID":14,"CORP_ID":68,"CORP_CODE":"-","CORP_NAME":"青岛啤酒汉中有限责任公司","AREA_CODE":"610702","PX":107.056277,"PY":33.083578,"ADRESS":"新桥","FR":"王燕侠","TEL":"0916-2123218","CUSC_CODE":"91610700719778630L","PARENT_ARE":"610700","IS_ZDY":1,"IS_XKZ":1,"IS_ONLINE":1,"CORP_TYPE":3}},
{"type":"Feature","geometry":{"type":"Point","coordinates":[109.49722222200006,34.57638888900004]},"properties":{"OBJECTID":15,"CORP_ID":69,"CORP_CODE":"-","CORP_NAME":"青岛啤酒渭南有限责任公司","AREA_CODE":"610562","PX":109.497222222,"PY":34.5763888889,"ADRESS":"陕西省渭南市经济技术开发区凤鸣街","FR":"陆西定","TEL":"0913-2195888","CUSC_CODE":"91610594994962096G","PARENT_ARE":"610500","IS_ZDY":1,"IS_XKZ":1,"IS_ONLINE":1,"CORP_TYPE":3}},
{"type":"Feature","geometry":{"type":"Point","coordinates":[109.22002200000009,34.47875200000004]},"properties":{"OBJECTID":16,"CORP_ID":70,"CORP_CODE":"-","CORP_NAME":"青岛啤酒西安汉斯集团有限公司","AREA_CODE":"610112","PX":109.220022,"PY":34.478752,"ADRESS":"秦王二路3939号","FR":"张建吉","TEL":"","CUSC_CODE":"91610133294463050L","PARENT_ARE":"610100","IS_ZDY":1,"IS_XKZ":1,"IS_ONLINE":1,"CORP_TYPE":3}},
{"type":"Feature","geometry":{"type":"Point","coordinates":[109.74251111100006,38.21346111100007]},"properties":{"OBJECTID":17,"CORP_ID":71,"CORP_CODE":"78695254-7","CORP_NAME":"青岛啤酒榆林有限责任公司","AREA_CODE":"610802","PX":109.742511111,"PY":38.2134611111,"ADRESS":"陕西省榆林市高新技术产业园区工业园区","FR":"史林枫","TEL":"0912-8192588","CUSC_CODE":"916108007869525471","PARENT_ARE":"610800","IS_ZDY":1,"IS_XKZ":1,"IS_ONLINE":1,"CORP_TYPE":3}},
{"type":"Feature","geometry":{"type":"Point","coordinates":[110.13487000000003,37.04804000000007]},"properties":{"OBJECTID":18,"CORP_ID":72,"CORP_CODE":"-","CORP_NAME":"清涧县污水垃圾处理服务中心","AREA_CODE":"610830","PX":110.13487,"PY":37.04804,"ADRESS":"十里铺村","FR":"梁小东","TEL":"","CUSC_CODE":"12610830052106376C","PARENT_ARE":"610800","IS_ZDY":0,"IS_XKZ":1,"IS_ONLINE":1,"CORP_TYPE":5}},
{"type":"Feature","geometry":{"type":"Point","coordinates":[110.07126111100007,33.246219444000076]},"properties":{"OBJECTID":20,"CORP_ID":78,"CORP_CODE":"91611024-","CORP_NAME":"山阳县金川封幸化工有限责任公司","AREA_CODE":"611024","PX":110.071261111,"PY":33.2462194444,"ADRESS":"陕西省商洛市山阳县漫川关镇前店子村","FR":"成传德","TEL":"","CUSC_CODE":"916110247353579327","PARENT_ARE":"611000","IS_ZDY":1,"IS_XKZ":1,"IS_ONLINE":0,"CORP_TYPE":3}},
{"type":"Feature","geometry":{"type":"Point","coordinates":[110.40705000000008,38.93540000000007]},"properties":{"OBJECTID":21,"CORP_ID":81,"CORP_CODE":"-","CORP_NAME":"陕煤集团神木红柳林矿业有限公司","AREA_CODE":"610821","PX":110.40705,"PY":38.9354,"ADRESS":"陕西省榆林市神木市麻家塔乡红柳林村","FR":"党应强","TEL":"","CUSC_CODE":"916100007799307022","PARENT_ARE":"610800","IS_ZDY":0,"IS_XKZ":1,"IS_ONLINE":1,"CORP_TYPE":3}},
{"type":"Feature","geometry":{"type":"Point","coordinates":[109.06451111100006,32.72203888900003]},"properties":{"OBJECTID":22,"CORP_ID":83,"CORP_CODE":"-","CORP_NAME":"陕西安康江华（集团）有限公司","AREA_CODE":"610902","PX":109.064511111,"PY":32.7220388889,"ADRESS":"陕西省安康市汉滨区关庙镇金星村","FR":"陈杨帆","TEL":"","CUSC_CODE":"916109027769746034","PARENT_ARE":"610900","IS_ZDY":1,"IS_XKZ":1,"IS_ONLINE":1,"CORP_TYPE":1}},
{"type":"Feature","geometry":{"type":"Point","coordinates":[109.16205800000006,31.920480000000055]},"properties":{"OBJECTID":23,"CORP_ID":84,"CORP_CODE":"-","CORP_NAME":"安康尧柏江华水泥有限公司","AREA_CODE":"610902","PX":109.162058,"PY":31.92048,"ADRESS":"陕西省安康高新技术产业开发区新型材料产业园","FR":"禇才涛","TEL":"09153515656","CUSC_CODE":"9161090056711683XY","PARENT_ARE":"610900","IS_ZDY":0,"IS_XKZ":1,"IS_ONLINE":0,"CORP_TYPE":3}},
{"type":"Feature","geometry":{"type":"Point","coordinates":[107.07944444400005,34.33666666700003]},"properties":{"OBJECTID":26,"CORP_ID":89,"CORP_CODE":"-","CORP_NAME":"陕西宝化科技有限责任公司","AREA_CODE":"610303","PX":107.079444444,"PY":34.3366666667,"ADRESS":"陕西省宝鸡市金台区陈仓大道38号","FR":"李旸","TEL":"","CUSC_CODE":"91610303221300955B","PARENT_ARE":"610300","IS_ZDY":0,"IS_XKZ":1,"IS_ONLINE":0,"CORP_TYPE":3}},
{"type":"Feature","geometry":{"type":"Point","coordinates":[107.22171111100005,34.49488888900004]},"properties":{"OBJECTID":27,"CORP_ID":90,"CORP_CODE":"22059246-6","CORP_NAME":"陕西宝鸡第二发电有限责任公司","AREA_CODE":"610322","PX":107.221711111,"PY":34.4948888889,"ADRESS":"陕西省凤翔县长青镇","FR":"彭东铭","TEL":"","CUSC_CODE":"","PARENT_ARE":"610300","IS_ZDY":1,"IS_XKZ":1,"IS_ONLINE":1,"CORP_TYPE":3}},
{"type":"Feature","geometry":{"type":"Point","coordinates":[110.17861111100007,38.738888889000066]},"properties":{"OBJECTID":28,"CORP_ID":92,"CORP_CODE":"-","CORP_NAME":"陕西北元化工集团股份有限公司","AREA_CODE":"610821","PX":110.178611111,"PY":38.7388888889,"ADRESS":"陕西省神木县锦界工业园区","FR":"刘国强","TEL":"","CUSC_CODE":"91610821748622598U","PARENT_ARE":"610800","IS_ZDY":1,"IS_XKZ":1,"IS_ONLINE":1,"CORP_TYPE":3}},
{"type":"Feature","geometry":{"type":"Point","coordinates":[108.63458888900004,34.30813888900008]},"properties":{"OBJECTID":30,"CORP_ID":96,"CORP_CODE":"69494295-8","CORP_NAME":"陕西步长制药有限公司","AREA_CODE":"610405","PX":108.634588889,"PY":34.3081388889,"ADRESS":"陕西省咸阳市高新技术产业开发区步长路16号","FR":"赵超","TEL":"88318318","CUSC_CODE":"91610400694942958R","PARENT_ARE":"610400","IS_ZDY":0,"IS_XKZ":1,"IS_ONLINE":1,"CORP_TYPE":3}},
{"type":"Feature","geometry":{"type":"Point","coordinates":[110.66805555600007,39.020277778000036]},"properties":{"OBJECTID":31,"CORP_ID":300,"CORP_CODE":"-","CORP_NAME":"府谷县昊田煤电冶化有限公司","AREA_CODE":"610822","PX":110.668055556,"PY":39.0202777778,"ADRESS":"陕西省榆林市府谷县新民镇万家墩工业园区","FR":"王爱田","TEL":"","CUSC_CODE":"91610822583528754G","PARENT_ARE":"610800","IS_ZDY":1,"IS_XKZ":1,"IS_ONLINE":1,"CORP_TYPE":3}},
{"type":"Feature","geometry":{"type":"Point","coordinates":[108.50028888900005,34.30113888900007]},"properties":{"OBJECTID":33,"CORP_ID":600,"CORP_CODE":"76633859-04","CORP_NAME":"鲁洲生物科技（陕西）有限公司","AREA_CODE":"610481","PX":108.500288889,"PY":34.3011388889,"ADRESS":"兴平市兴渝路54号","FR":"赵玉东","TEL":"","CUSC_CODE":"916104007663385904","PARENT_ARE":"610400","IS_ZDY":1,"IS_XKZ":1,"IS_ONLINE":1,"CORP_TYPE":3}},
{"type":"Feature","geometry":{"type":"Point","coordinates":[109.14000000000004,34.53555555600008]},"properties":{"OBJECTID":34,"CORP_ID":700,"CORP_CODE":"22112902-7","CORP_NAME":"西安西京水泥有限责任公司","AREA_CODE":"610126","PX":109.14,"PY":34.5355555556,"ADRESS":"","FR":"孟西京","TEL":"","CUSC_CODE":"91610117221129027M","PARENT_ARE":"610100","IS_ZDY":0,"IS_XKZ":1,"IS_ONLINE":0,"CORP_TYPE":1}},
{"type":"Feature","geometry":{"type":"Point","coordinates":[108.86842000000007,34.29777900000005]},"properties":{"OBJECTID":36,"CORP_ID":1500,"CORP_CODE":"-","CORP_NAME":"西安兴蓉环境发展有限责任公司(西安市第一污水处理厂二期)","AREA_CODE":"610104","PX":108.86842,"PY":34.297779,"ADRESS":"西安市莲湖区大兴西路一污二期（三民管理所西侧）","FR":"吴亚平","TEL":"","CUSC_CODE":"91610131583194053H","PARENT_ARE":"610100","IS_ZDY":1,"IS_XKZ":1,"IS_ONLINE":1,"CORP_TYPE":5}},
{"type":"Feature","geometry":{"type":"Point","coordinates":[108.71694444400003,34.25194444400006]},"properties":{"OBJECTID":37,"CORP_ID":1600,"CORP_CODE":"-766995785","CORP_NAME":"西安渭丰纸业有限公司","AREA_CODE":"610125","PX":108.716944444,"PY":34.2519444444,"ADRESS":"户县渭丰镇元西村","FR":"王心愿","TEL":"","CUSC_CODE":"91610125766995785X","PARENT_ARE":"610100","IS_ZDY":0,"IS_XKZ":1,"IS_ONLINE":0,"CORP_TYPE":1}},
{"type":"Feature","geometry":{"type":"Point","coordinates":[109.88215000000008,33.90448888900005]},"properties":{"OBJECTID":38,"CORP_ID":370000,"CORP_CODE":"-","CORP_NAME":"商洛市商州区天安砖厂","AREA_CODE":"611002","PX":109.88215,"PY":33.9044888889,"ADRESS":"商州区陈塬办事处邵涧村七组","FR":"闫秦敬","TEL":"18992450606","CUSC_CODE":"91611002064845870T","PARENT_ARE":"611000","IS_ZDY":0,"IS_XKZ":1,"IS_ONLINE":0,"CORP_TYPE":3}},
{"type":"Feature","geometry":{"type":"Point","coordinates":[109.86083333300007,35.16555555600007]},"properties":{"OBJECTID":40,"CORP_ID":103,"CORP_CODE":"-","CORP_NAME":"陕西陕煤澄合矿业有限公司电力分公司","AREA_CODE":"610525","PX":109.860833333,"PY":35.1655555556,"ADRESS":"","FR":"武国平","TEL":"","CUSC_CODE":"916105007625524500","PARENT_ARE":"610500","IS_ZDY":1,"IS_XKZ":1,"IS_ONLINE":1,"CORP_TYPE":3}},
{"type":"Feature","geometry":{"type":"Point","coordinates":[110.25671111100007,33.89721944400003]},"properties":{"OBJECTID":41,"CORP_ID":106,"CORP_CODE":"-","CORP_NAME":"商洛尧柏龙桥水泥有限公司留仙坪分厂","AREA_CODE":"611022","PX":110.256711111,"PY":33.8972194444,"ADRESS":"油房街村","FR":"赵德昌","TEL":"","CUSC_CODE":"91611000MA70T9KXXQ","PARENT_ARE":"611000","IS_ZDY":1,"IS_XKZ":1,"IS_ONLINE":1,"CORP_TYPE":1}},
{"type":"Feature","geometry":{"type":"Point","coordinates":[110.78611111100008,39.205833333000044]},"properties":{"OBJECTID":42,"CORP_ID":107,"CORP_CODE":"77698866-9","CORP_NAME":"陕西德源府谷能源有限公司","AREA_CODE":"610822","PX":110.786111111,"PY":39.2058333333,"ADRESS":"陕西省榆林市府谷县庙沟门镇","FR":"邵水才","TEL":"","CUSC_CODE":"916100007769886696","PARENT_ARE":"610800","IS_ZDY":1,"IS_XKZ":1,"IS_ONLINE":1,"CORP_TYPE":3}},
{"type":"Feature","geometry":{"type":"Point","coordinates":[106.52705000000009,33.94450000000006]},"properties":{"OBJECTID":43,"CORP_ID":109,"CORP_CODE":"-","CORP_NAME":"东岭锌业股份有限公司","AREA_CODE":"610330","PX":106.52705,"PY":33.9445,"ADRESS":"凤县双石铺镇双唐路","FR":"赵小强","TEL":"","CUSC_CODE":"91610000730437589A","PARENT_ARE":"610300","IS_ZDY":1,"IS_XKZ":1,"IS_ONLINE":1,"CORP_TYPE":3}},
{"type":"Feature","geometry":{"type":"Point","coordinates":[107.23880000000008,34.469169444000045]},"properties":{"OBJECTID":44,"CORP_ID":110,"CORP_CODE":"79411573-0","CORP_NAME":"陕西东岭冶炼有限公司","AREA_CODE":"610322","PX":107.2388,"PY":34.4691694444,"ADRESS":"陕西省宝鸡市凤翔县长青镇长青工业园","FR":"赵小强","TEL":"","CUSC_CODE":"91610322794115730F","PARENT_ARE":"610300","IS_ZDY":1,"IS_XKZ":1,"IS_ONLINE":1,"CORP_TYPE":3}},
{"type":"Feature","geometry":{"type":"Point","coordinates":[108.86450400000007,34.281889000000035]},"properties":{"OBJECTID":46,"CORP_ID":114,"CORP_CODE":"73043118-7","CORP_NAME":"陕西法士特齿轮有限责任公司","AREA_CODE":"610104","PX":108.864504,"PY":34.281889,"ADRESS":"大庆路西段与枣园南路交汇处西北角","FR":"谭旭光","TEL":"","CUSC_CODE":"916100007304311872","PARENT_ARE":"610100","IS_ZDY":1,"IS_XKZ":1,"IS_ONLINE":1,"CORP_TYPE":3}},
{"type":"Feature","geometry":{"type":"Point","coordinates":[110.47698888900004,35.54836111100008]},"properties":{"OBJECTID":47,"CORP_ID":117,"CORP_CODE":"-","CORP_NAME":"陕西丰义实业有限公司","AREA_CODE":"618201","PX":110.476988889,"PY":35.5483611111,"ADRESS":"陕西省韩城市昝村煤化工业园","FR":"叶四义","TEL":"","CUSC_CODE":"91610581719760422W","PARENT_ARE":"618200","IS_ZDY":0,"IS_XKZ":1,"IS_ONLINE":0,"CORP_TYPE":1}},
{"type":"Feature","geometry":{"type":"Point","coordinates":[110.76833333300004,39.25666666700005]},"properties":{"OBJECTID":48,"CORP_ID":119,"CORP_CODE":"-","CORP_NAME":"陕西府谷热电有限公司","AREA_CODE":"610822","PX":110.768333333,"PY":39.2566666667,"ADRESS":"陕西省榆林市府谷县府谷镇沙川沟","FR":"赵光林","TEL":"","CUSC_CODE":"91610822224032386A","PARENT_ARE":"610800","IS_ZDY":1,"IS_XKZ":1,"IS_ONLINE":1,"CORP_TYPE":3}},
{"type":"Feature","geometry":{"type":"Point","coordinates":[109.02283055600009,34.81226944400004]},"properties":{"OBJECTID":49,"CORP_ID":120,"CORP_CODE":"73534686-2","CORP_NAME":"陕西富化化工有限责任公司","AREA_CODE":"610528","PX":109.022830556,"PY":34.8122694444,"ADRESS":"庄里工业园区工业二路东","FR":"王新旺","TEL":"13909135059","CUSC_CODE":"91610528735346862W","PARENT_ARE":"610500","IS_ZDY":1,"IS_XKZ":1,"IS_ONLINE":1,"CORP_TYPE":1}},
{"type":"Feature","geometry":{"type":"Point","coordinates":[109.06557600000008,34.830283000000065]},"properties":{"OBJECTID":50,"CORP_ID":122,"CORP_CODE":"75521127-9","CORP_NAME":"陕西富平水泥有限公司","AREA_CODE":"610528","PX":109.065576,"PY":34.830283,"ADRESS":"陕西省渭南市富平县庄里镇","FR":"陈龙","TEL":"","CUSC_CODE":"91610000755211279B","PARENT_ARE":"610500","IS_ZDY":1,"IS_XKZ":1,"IS_ONLINE":1,"CORP_TYPE":1}},
{"type":"Feature","geometry":{"type":"Point","coordinates":[109.92472222200007,34.95527777800004]},"properties":{"OBJECTID":51,"CORP_ID":123,"CORP_CODE":"78365706-7","CORP_NAME":"陕西海升果业发展股份有限公司渭南分公司","AREA_CODE":"610525","PX":109.924722222,"PY":34.9552777778,"ADRESS":"农业产业化园区","FR":"赵升","TEL":"6823386","CUSC_CODE":"916105007836570671","PARENT_ARE":"610500","IS_ZDY":1,"IS_XKZ":1,"IS_ONLINE":1,"CORP_TYPE":3}},
{"type":"Feature","geometry":{"type":"Point","coordinates":[110.56305000000003,35.62633055600003]},"properties":{"OBJECTID":52,"CORP_ID":125,"CORP_CODE":"73535672-9","CORP_NAME":"陕西海燕新能源（集团）有限公司","AREA_CODE":"618201","PX":110.56305,"PY":35.6263305556,"ADRESS":"陕西省韩城市龙门镇龙门冶金工业园","FR":"王文选","TEL":"","CUSC_CODE":"916105817353567298","PARENT_ARE":"618200","IS_ZDY":1,"IS_XKZ":1,"IS_ONLINE":1,"CORP_TYPE":3}},
{"type":"Feature","geometry":{"type":"Point","coordinates":[107.02866944400006,33.104250000000036]},"properties":{"OBJECTID":53,"CORP_ID":127,"CORP_CODE":"-","CORP_NAME":"陕西汉江药业集团股份有限公司","AREA_CODE":"610702","PX":107.028669444,"PY":33.10425,"ADRESS":"陕西省汉中市汉台区药厂路103号","FR":"王政军","TEL":"","CUSC_CODE":"9161000071352041X2","PARENT_ARE":"610700","IS_ZDY":1,"IS_XKZ":1,"IS_ONLINE":1,"CORP_TYPE":3}},
{"type":"Feature","geometry":{"type":"Point","coordinates":[110.42750000000007,35.60527777800007]},"properties":{"OBJECTID":54,"CORP_ID":133,"CORP_CODE":"75521768-9","CORP_NAME":"陕西黑猫焦化股份有限公司","AREA_CODE":"618201","PX":110.4275,"PY":35.6052777778,"ADRESS":"陕西省韩城市西庄镇杨村","FR":"李保平","TEL":"","CUSC_CODE":"91610000755217689E","PARENT_ARE":"618200","IS_ZDY":1,"IS_XKZ":1,"IS_ONLINE":1,"CORP_TYPE":3}},
{"type":"Feature","geometry":{"type":"Point","coordinates":[109.50893888900004,34.56743888900007]},"properties":{"OBJECTID":55,"CORP_ID":135,"CORP_CODE":"-","CORP_NAME":"陕西恒盛诺德高科技有限公司","AREA_CODE":"610562","PX":109.508938889,"PY":34.5674388889,"ADRESS":"陕西省渭南市经济技术开发区香山大道1号","FR":"聂新宇","TEL":"18691377773","CUSC_CODE":"91610594737967232W","PARENT_ARE":"610500","IS_ZDY":0,"IS_XKZ":1,"IS_ONLINE":0,"CORP_TYPE":3}},
{"type":"Feature","geometry":{"type":"Point","coordinates":[110.13837600000005,35.26240400000006]},"properties":{"OBJECTID":56,"CORP_ID":136,"CORP_CODE":"-","CORP_NAME":"陕西恒兴公司合阳果汁厂","AREA_CODE":"610524","PX":110.138376,"PY":35.262404,"ADRESS":"九龙大街西延段工业集中区","FR":"雷宇","TEL":"","CUSC_CODE":"916105002224899565001W","PARENT_ARE":"610500","IS_ZDY":1,"IS_XKZ":1,"IS_ONLINE":1,"CORP_TYPE":3}},
{"type":"Feature","geometry":{"type":"Point","coordinates":[109.80243888900009,34.97803888900006]},"properties":{"OBJECTID":57,"CORP_ID":142,"CORP_CODE":"66119433-2","CORP_NAME":"陕西华电发电有限责任公司","AREA_CODE":"610526","PX":109.802438889,"PY":34.9780388889,"ADRESS":"陕西省渭南市蒲城县孙镇","FR":"何卫中","TEL":"09137662001","CUSC_CODE":"916100006611943326","PARENT_ARE":"610500","IS_ZDY":1,"IS_XKZ":1,"IS_ONLINE":0,"CORP_TYPE":3}},
{"type":"Feature","geometry":{"type":"Point","coordinates":[109.79000000000008,34.97916666700007]},"properties":{"OBJECTID":58,"CORP_ID":143,"CORP_CODE":"-","CORP_NAME":"陕西华电蒲城发电有限责任公司","AREA_CODE":"610526","PX":109.79,"PY":34.9791666667,"ADRESS":"陕西省渭南市蒲城县孙镇","FR":"何卫中","TEL":"09137662001","CUSC_CODE":"91610000294207807W","PARENT_ARE":"610500","IS_ZDY":1,"IS_XKZ":1,"IS_ONLINE":1,"CORP_TYPE":3}},
{"type":"Feature","geometry":{"type":"Point","coordinates":[108.46666666700008,34.31666666700005]},"properties":{"OBJECTID":59,"CORP_ID":146,"CORP_CODE":"71355354-5","CORP_NAME":"陕西华特新材料股份有限公司","AREA_CODE":"610481","PX":108.466666667,"PY":34.3166666667,"ADRESS":"","FR":"刘高才","TEL":"","CUSC_CODE":"","PARENT_ARE":"610400","IS_ZDY":1,"IS_XKZ":1,"IS_ONLINE":1,"CORP_TYPE":3}},
{"type":"Feature","geometry":{"type":"Point","coordinates":[109.44526944400008,32.336119444000076]},"properties":{"OBJECTID":60,"CORP_ID":150,"CORP_CODE":"-","CORP_NAME":"陕西金龙水泥有限公司","AREA_CODE":"610926","PX":109.445269444,"PY":32.3361194444,"ADRESS":"陕西省安康市平利县长安镇石牛村","FR":"陈志连","TEL":"","CUSC_CODE":"916109266715288858","PARENT_ARE":"610900","IS_ZDY":1,"IS_XKZ":1,"IS_ONLINE":0,"CORP_TYPE":1}},
{"type":"Feature","geometry":{"type":"Point","coordinates":[110.17916666700006,37.736666667000065]},"properties":{"OBJECTID":61,"CORP_ID":151,"CORP_CODE":"75522182-1","CORP_NAME":"陕西金泰氯碱化工有限公司","AREA_CODE":"610827","PX":110.179166667,"PY":37.7366666667,"ADRESS":"陕西省榆林市米脂县金泰路1号","FR":"薛卫东","TEL":"","CUSC_CODE":"916100007552218217","PARENT_ARE":"610800","IS_ZDY":1,"IS_XKZ":1,"IS_ONLINE":1,"CORP_TYPE":3}},
{"type":"Feature","geometry":{"type":"Point","coordinates":[110.34376200000008,39.25305600000007]},"properties":{"OBJECTID":62,"CORP_ID":152,"CORP_CODE":"67153564-7","CORP_NAME":"陕西莱德炭质还原剂集团有限公司","AREA_CODE":"610821","PX":110.343762,"PY":39.253056,"ADRESS":"陕西省神木县大柳塔镇乌兰色太工业区","FR":"赵海金","TEL":"","CUSC_CODE":"91610821671535647K","PARENT_ARE":"610800","IS_ZDY":1,"IS_XKZ":1,"IS_ONLINE":1,"CORP_TYPE":3}},
{"type":"Feature","geometry":{"type":"Point","coordinates":[108.44000000000005,34.190000000000055]},"properties":{"OBJECTID":63,"CORP_ID":154,"CORP_CODE":"71975104-0","CORP_NAME":"陕西蓝马啤酒有限公司","AREA_CODE":"619902","PX":108.44,"PY":34.19,"ADRESS":"陕西省西咸新区沣东新城沣东街办","FR":"张江伟","TEL":"","CUSC_CODE":"91611100719751040Y","PARENT_ARE":"619900","IS_ZDY":0,"IS_XKZ":1,"IS_ONLINE":1,"CORP_TYPE":3}},
{"type":"Feature","geometry":{"type":"Point","coordinates":[108.77240000000006,34.373730556000055]},"properties":{"OBJECTID":65,"CORP_ID":156,"CORP_CODE":"-","CORP_NAME":"中玻（陕西)新技术有限公司","AREA_CODE":"619903","PX":108.7724,"PY":34.3737305556,"ADRESS":"咸红路西段","FR":"吕国","TEL":"","CUSC_CODE":"91610400766342645G","PARENT_ARE":"619900","IS_ZDY":0,"IS_XKZ":1,"IS_ONLINE":1,"CORP_TYPE":3}},
{"type":"Feature","geometry":{"type":"Point","coordinates":[107.03621944400004,33.09953055600005]},"properties":{"OBJECTID":66,"CORP_ID":157,"CORP_CODE":"-","CORP_NAME":"陕西理想化工有限责任公司","AREA_CODE":"610702","PX":107.036219444,"PY":33.0995305556,"ADRESS":"陕西省汉中市汉台区北郊","FR":"李惠斌","TEL":"","CUSC_CODE":"916107007450091732","PARENT_ARE":"610700","IS_ZDY":1,"IS_XKZ":1,"IS_ONLINE":1,"CORP_TYPE":3}},
{"type":"Feature","geometry":{"type":"Point","coordinates":[107.56805555600005,34.27916666700003]},"properties":{"OBJECTID":67,"CORP_ID":158,"CORP_CODE":"70991264-8(  )","CORP_NAME":"陕西凌云蓄电池有限公司","AREA_CODE":"610305","PX":107.568055556,"PY":34.2791666667,"ADRESS":"陕六路8号","FR":"全勇","TEL":"","CUSC_CODE":"91610000709912648K","PARENT_ARE":"610300","IS_ZDY":1,"IS_XKZ":1,"IS_ONLINE":1,"CORP_TYPE":3}},
{"type":"Feature","geometry":{"type":"Point","coordinates":[110.57183055600007,35.61626111100003]},"properties":{"OBJECTID":68,"CORP_ID":160,"CORP_CODE":"-","CORP_NAME":"陕西龙门钢铁有限责任公司","AREA_CODE":"618201","PX":110.571830556,"PY":35.6162611111,"ADRESS":"陕西省韩城市龙门镇","FR":"郗九生","TEL":"","CUSC_CODE":"91610581661193700G","PARENT_ARE":"618200","IS_ZDY":1,"IS_XKZ":1,"IS_ONLINE":1,"CORP_TYPE":3}},
{"type":"Feature","geometry":{"type":"Point","coordinates":[110.57246944400003,35.60333888900004]},"properties":{"OBJECTID":69,"CORP_ID":164,"CORP_CODE":"68476533-7","CORP_NAME":"陕西龙门煤化工有限责任公司","AREA_CODE":"618201","PX":110.572469444,"PY":35.6033388889,"ADRESS":"陕西省韩城市龙门镇龙门工业园区东区","FR":"张林兴","TEL":"0913-5129570","CUSC_CODE":"91610000684765337U","PARENT_ARE":"618200","IS_ZDY":1,"IS_XKZ":1,"IS_ONLINE":1,"CORP_TYPE":3}},
{"type":"Feature","geometry":{"type":"Point","coordinates":[105.93361111100006,33.283888889000025]},"properties":{"OBJECTID":70,"CORP_ID":165,"CORP_CODE":"75521135-9","CORP_NAME":"陕西略阳钢铁有限责任公司","AREA_CODE":"610727","PX":105.933611111,"PY":33.2838888889,"ADRESS":"","FR":"方堃","TEL":"","CUSC_CODE":"916107277552113597","PARENT_ARE":"610700","IS_ZDY":1,"IS_XKZ":1,"IS_ONLINE":1,"CORP_TYPE":3}},
{"type":"Feature","geometry":{"type":"Point","coordinates":[109.01611111100004,34.943333333000055]},"properties":{"OBJECTID":71,"CORP_ID":166,"CORP_CODE":"-916100007869700166","CORP_NAME":"陕西满意水泥有限责任公司","AREA_CODE":"610204","PX":109.016111111,"PY":34.9433333333,"ADRESS":"陕西省铜川市耀州区孙塬镇","FR":"赵满义","TEL":"","CUSC_CODE":"916100007869700166","PARENT_ARE":"610200","IS_ZDY":1,"IS_XKZ":1,"IS_ONLINE":1,"CORP_TYPE":1}},
{"type":"Feature","geometry":{"type":"Point","coordinates":[110.46277777800009,38.959166667000034]},"properties":{"OBJECTID":72,"CORP_ID":168,"CORP_CODE":"-","CORP_NAME":"陕西煤业化工集团神木电化发展有限公司","AREA_CODE":"610821","PX":110.462777778,"PY":38.9591666667,"ADRESS":"陕西省榆林市神木县店塔镇草垛山村","FR":"辛文辉","TEL":"0912-8455455","CUSC_CODE":"91610821562219223W","PARENT_ARE":"610800","IS_ZDY":1,"IS_XKZ":1,"IS_ONLINE":1,"CORP_TYPE":3}},
{"type":"Feature","geometry":{"type":"Point","coordinates":[110.17820000000006,38.711423000000025]},"properties":{"OBJECTID":73,"CORP_ID":169,"CORP_CODE":"76632501-X","CORP_NAME":"陕西煤业化工集团神木天元化工有限公司","AREA_CODE":"610821","PX":110.1782,"PY":38.711423,"ADRESS":"","FR":"毛世强","TEL":"","CUSC_CODE":"9161082176632501XX","PARENT_ARE":"610800","IS_ZDY":1,"IS_XKZ":1,"IS_ONLINE":1,"CORP_TYPE":3}},
{"type":"Feature","geometry":{"type":"Point","coordinates":[109.86391944400003,34.96358055600007]},"properties":{"OBJECTID":74,"CORP_ID":172,"CORP_CODE":"-","CORP_NAME":"陕西蒲城洛东水泥有限公司","AREA_CODE":"610526","PX":109.863919444,"PY":34.9635805556,"ADRESS":"陕西省渭南市蒲城县永丰镇石马村","FR":"公平","TEL":"","CUSC_CODE":"91610526222390876B","PARENT_ARE":"610500","IS_ZDY":0,"IS_XKZ":1,"IS_ONLINE":0,"CORP_TYPE":1}},
{"type":"Feature","geometry":{"type":"Point","coordinates":[108.99105555600005,34.90577777800007]},"properties":{"OBJECTID":75,"CORP_ID":177,"CORP_CODE":"30547050-5","CORP_NAME":"冀东水泥铜川有限公司","AREA_CODE":"610204","PX":108.991055556,"PY":34.9057777778,"ADRESS":"陕西省铜川市耀州区东关","FR":"韩保平","TEL":"","CUSC_CODE":"91610200305470505P","PARENT_ARE":"610200","IS_ZDY":1,"IS_XKZ":1,"IS_ONLINE":1,"CORP_TYPE":1}},
{"type":"Feature","geometry":{"type":"Point","coordinates":[109.92472222200007,35.17555555600006]},"properties":{"OBJECTID":76,"CORP_ID":181,"CORP_CODE":"75520784-3","CORP_NAME":"陕西群生发电有限公司","AREA_CODE":"610525","PX":109.924722222,"PY":35.1755555556,"ADRESS":"澄城县工业园区电厂路3号","FR":"李长宏","TEL":"0913-6751002","CUSC_CODE":"91610000755207843B","PARENT_ARE":"610500","IS_ZDY":1,"IS_XKZ":1,"IS_ONLINE":1,"CORP_TYPE":3}},
{"type":"Feature","geometry":{"type":"Point","coordinates":[108.99138888900006,34.887500000000045]},"properties":{"OBJECTID":77,"CORP_ID":184,"CORP_CODE":"74129412-2","CORP_NAME":"陕西陕焦化工有限公司","AREA_CODE":"610528","PX":108.991388889,"PY":34.8875,"ADRESS":"","FR":"姚继峰","TEL":"","CUSC_CODE":"91610000741294122K","PARENT_ARE":"610500","IS_ZDY":1,"IS_XKZ":1,"IS_ONLINE":1,"CORP_TYPE":3}},
{"type":"Feature","geometry":{"type":"Point","coordinates":[107.78179400000005,34.206980000000044]},"properties":{"OBJECTID":79,"CORP_ID":187,"CORP_CODE":"-","CORP_NAME":"陕西社会水泥有限责任公司","AREA_CODE":"610326","PX":107.781794,"PY":34.20698,"ADRESS":"陕西宝鸡眉县金渠镇河营路1号","FR":"石社会","TEL":"","CUSC_CODE":"9161030022152414XD","PARENT_ARE":"610300","IS_ZDY":1,"IS_XKZ":1,"IS_ONLINE":1,"CORP_TYPE":1}},
{"type":"Feature","geometry":{"type":"Point","coordinates":[109.54685600000005,35.20856500000008]},"properties":{"OBJECTID":80,"CORP_ID":190,"CORP_CODE":"73266447-8","CORP_NAME":"白水安德利果蔬汁有限公司","AREA_CODE":"610527","PX":109.546856,"PY":35.208565,"ADRESS":"苹果科技产业园","FR":"黄连波","TEL":"0913-6391188","CUSC_CODE":"91610500732664478D","PARENT_ARE":"610500","IS_ZDY":1,"IS_XKZ":1,"IS_ONLINE":1,"CORP_TYPE":3}},
{"type":"Feature","geometry":{"type":"Point","coordinates":[108.86923055600005,35.26438888900003]},"properties":{"OBJECTID":81,"CORP_ID":193,"CORP_CODE":"-","CORP_NAME":"陕西省崔家沟煤矿","AREA_CODE":"610203","PX":108.869230556,"PY":35.2643888889,"ADRESS":"杏树坪","FR":"张卫东","TEL":"","CUSC_CODE":"916100002211412293","PARENT_ARE":"610200","IS_ZDY":0,"IS_XKZ":1,"IS_ONLINE":1,"CORP_TYPE":3}},
{"type":"Feature","geometry":{"type":"Point","coordinates":[111.12970100000007,39.21241500000008]},"properties":{"OBJECTID":82,"CORP_ID":204,"CORP_CODE":"-","CORP_NAME":"陕西清水川能源股份有限公司","AREA_CODE":"610822","PX":111.129701,"PY":39.212415,"ADRESS":"陕西榆林市府谷县清水乡工业园区","FR":"王安权","TEL":"","CUSC_CODE":"91610000580766765J","PARENT_ARE":"610800","IS_ZDY":1,"IS_XKZ":1,"IS_ONLINE":1,"CORP_TYPE":3}},
{"type":"Feature","geometry":{"type":"Point","coordinates":[111.13083333300006,39.07222222200005]},"properties":{"OBJECTID":83,"CORP_ID":205,"CORP_CODE":"-","CORP_NAME":"陕西省府谷县东山发电厂","AREA_CODE":"610822","PX":111.130833333,"PY":39.0722222222,"ADRESS":"东山村","FR":"韩兰世","TEL":"","CUSC_CODE":"91610822224041784B","PARENT_ARE":"610800","IS_ZDY":1,"IS_XKZ":1,"IS_ONLINE":1,"CORP_TYPE":3}},
{"type":"Feature","geometry":{"type":"Point","coordinates":[110.48338888900008,35.547750000000065]},"properties":{"OBJECTID":84,"CORP_ID":208,"CORP_CODE":"70997259-5","CORP_NAME":"陕西中汇煤化有限公司","AREA_CODE":"618201","PX":110.483388889,"PY":35.54775,"ADRESS":"陕西省韩城市昝村煤化工业区","FR":"高凤龙","TEL":"","CUSC_CODE":"91610581709972595C","PARENT_ARE":"618200","IS_ZDY":1,"IS_XKZ":1,"IS_ONLINE":1,"CORP_TYPE":3}},
{"type":"Feature","geometry":{"type":"Point","coordinates":[107.16111111100008,33.23583333300007]},"properties":{"OBJECTID":85,"CORP_ID":210,"CORP_CODE":"72737457-2","CORP_NAME":"陕西省汉中公路建材有限责任公司","AREA_CODE":"610722","PX":107.161111111,"PY":33.2358333333,"ADRESS":"城固县老庄镇朱家坎","FR":"张俊明","TEL":"13909163605","CUSC_CODE":"91610700727374572P","PARENT_ARE":"610700","IS_ZDY":0,"IS_XKZ":1,"IS_ONLINE":0,"CORP_TYPE":1}},
{"type":"Feature","geometry":{"type":"Point","coordinates":[110.83581944400004,33.531750000000045]},"properties":{"OBJECTID":86,"CORP_ID":220,"CORP_CODE":"-","CORP_NAME":"商南县秦东水泥有限公司","AREA_CODE":"611023","PX":110.835819444,"PY":33.53175,"ADRESS":"陕西省商南县城关镇郭家村","FR":"李传松","TEL":"09146368688","CUSC_CODE":"91611023088130175Y","PARENT_ARE":"611000","IS_ZDY":0,"IS_XKZ":1,"IS_ONLINE":0,"CORP_TYPE":3}},
{"type":"Feature","geometry":{"type":"Point","coordinates":[107.96408888900004,34.27440000000007]},"properties":{"OBJECTID":87,"CORP_ID":222,"CORP_CODE":"-","CORP_NAME":"陕西省双菱化工股份有限公司","AREA_CODE":"610324","PX":107.964088889,"PY":34.2744,"ADRESS":"宝鸡市扶风绛帐科技工业园","FR":"魏发社","TEL":"","CUSC_CODE":"91610300709903979R","PARENT_ARE":"610300","IS_ZDY":0,"IS_XKZ":1,"IS_ONLINE":0,"CORP_TYPE":3}},
{"type":"Feature","geometry":{"type":"Point","coordinates":[107.64311944400004,34.46268888900005]},"properties":{"OBJECTID":88,"CORP_ID":223,"CORP_CODE":"-91610323221463105E","CORP_NAME":"陕西省天柱水泥制造有限责任公司","AREA_CODE":"610323","PX":107.643119444,"PY":34.4626888889,"ADRESS":"陕西省宝鸡市岐山县凤鸣镇北吴邵一组","FR":"任浩平","TEL":"","CUSC_CODE":"91610323221463105E","PARENT_ARE":"610300","IS_ZDY":0,"IS_XKZ":1,"IS_ONLINE":0,"CORP_TYPE":1}},
{"type":"Feature","geometry":{"type":"Point","coordinates":[109.04990000000004,35.05103888900004]},"properties":{"OBJECTID":89,"CORP_ID":224,"CORP_CODE":"-","CORP_NAME":"陕西铜川声威特种水泥有限公司","AREA_CODE":"610202","PX":109.0499,"PY":35.0510388889,"ADRESS":"陕西省铜川市王益区新宜北路","FR":"周大星","TEL":"","CUSC_CODE":"91610200770028608C","PARENT_ARE":"610200","IS_ZDY":1,"IS_XKZ":1,"IS_ONLINE":1,"CORP_TYPE":3}},
{"type":"Feature","geometry":{"type":"Point","coordinates":[108.09805200000005,35.03446100000008]},"properties":{"OBJECTID":90,"CORP_ID":230,"CORP_CODE":"91610427-4","CORP_NAME":"彬县电力有限责任公司","AREA_CODE":"610427","PX":108.098052,"PY":35.034461,"ADRESS":"姜嫄街16号","FR":"宁祖战","TEL":"","CUSC_CODE":"91610427222011004B","PARENT_ARE":"610400","IS_ZDY":0,"IS_XKZ":1,"IS_ONLINE":1,"CORP_TYPE":3}},
{"type":"Feature","geometry":{"type":"Point","coordinates":[109.59472222200009,35.18750000000006]},"properties":{"OBJECTID":91,"CORP_ID":232,"CORP_CODE":"-","CORP_NAME":"陕西新元发电有限公司","AREA_CODE":"610527","PX":109.594722222,"PY":35.1875,"ADRESS":"陕西省渭南市白水县雷牙镇李家卓村","FR":"段喜斌","TEL":"","CUSC_CODE":"916100002941940497","PARENT_ARE":"610500","IS_ZDY":1,"IS_XKZ":1,"IS_ONLINE":1,"CORP_TYPE":1}},
{"type":"Feature","geometry":{"type":"Point","coordinates":[107.67790100000008,34.318039000000056]},"properties":{"OBJECTID":92,"CORP_ID":240,"CORP_CODE":"73537265-7","CORP_NAME":"陕西圣龙纸业有限责任公司","AREA_CODE":"610323","PX":107.677901,"PY":34.318039,"ADRESS":"陕西省宝鸡市岐山县蔡家坡镇龚刘工业园区","FR":"王新全","TEL":"13909173118","CUSC_CODE":"91610323735372657P","PARENT_ARE":"610300","IS_ZDY":1,"IS_XKZ":1,"IS_ONLINE":1,"CORP_TYPE":3}},
{"type":"Feature","geometry":{"type":"Point","coordinates":[109.22611111100008,34.92138888900007]},"properties":{"OBJECTID":93,"CORP_ID":242,"CORP_CODE":"66795597-2","CORP_NAME":"陕西实丰水泥股份有限公司","AREA_CODE":"610528","PX":109.226111111,"PY":34.9213888889,"ADRESS":"","FR":"李小军","TEL":"","CUSC_CODE":"916105006679559728","PARENT_ARE":"610500","IS_ZDY":1,"IS_XKZ":1,"IS_ONLINE":1,"CORP_TYPE":1}},
{"type":"Feature","geometry":{"type":"Point","coordinates":[107.51631944400003,33.226800000000026]},"properties":{"OBJECTID":94,"CORP_ID":244,"CORP_CODE":"-","CORP_NAME":"陕西天汉生物科技有限公司","AREA_CODE":"610723","PX":107.516319444,"PY":33.2268,"ADRESS":"陕西省汉中市洋县城西人民路","FR":"许峰","TEL":"0916-8291555","CUSC_CODE":"91610700732669850P","PARENT_ARE":"610700","IS_ZDY":0,"IS_XKZ":1,"IS_ONLINE":0,"CORP_TYPE":3}},
{"type":"Feature","geometry":{"type":"Point","coordinates":[110.34286111100005,38.83338888900005]},"properties":{"OBJECTID":95,"CORP_ID":245,"CORP_CODE":"-","CORP_NAME":"神木县鑫庆金属镁业有限公司","AREA_CODE":"610821","PX":110.342861111,"PY":38.8333888889,"ADRESS":"陕西省榆林市神木县神木镇西沟办事处三道河村89","FR":"马安平","TEL":"","CUSC_CODE":"916108217625768311","PARENT_ARE":"610800","IS_ZDY":1,"IS_XKZ":1,"IS_ONLINE":1,"CORP_TYPE":3}},
{"type":"Feature","geometry":{"type":"Point","coordinates":[110.17243888900003,38.71285000000006]},"properties":{"OBJECTID":96,"CORP_ID":246,"CORP_CODE":"75522245-3","CORP_NAME":"神木市新元综合利用发电有限公司","AREA_CODE":"610821","PX":110.172438889,"PY":38.71285,"ADRESS":"陕西省神木市锦界工业园区","FR":"王光亮","TEL":"13038952699","CUSC_CODE":"91610821755222453P","PARENT_ARE":"610800","IS_ZDY":1,"IS_XKZ":1,"IS_ONLINE":1,"CORP_TYPE":3}},
{"type":"Feature","geometry":{"type":"Point","coordinates":[108.97391111100006,35.01015000000007]},"properties":{"OBJECTID":97,"CORP_ID":249,"CORP_CODE":"66795018-6","CORP_NAME":"陕西铜川凤凰建材有限公司","AREA_CODE":"610204","PX":108.973911111,"PY":35.01015,"ADRESS":"陕西省铜川市耀州区董家河镇","FR":"范长虹","TEL":"","CUSC_CODE":"91610200667950186L","PARENT_ARE":"610200","IS_ZDY":1,"IS_XKZ":1,"IS_ONLINE":1,"CORP_TYPE":1}},
{"type":"Feature","geometry":{"type":"Point","coordinates":[108.92691111100004,34.428300000000036]},"properties":{"OBJECTID":98,"CORP_ID":255,"CORP_CODE":"62374776-8","CORP_NAME":"陕西渭河发电有限公司","AREA_CODE":"619903","PX":108.926911111,"PY":34.4283,"ADRESS":"陕西省西咸新区秦汉新城正阳街道","FR":"王亮","TEL":"","CUSC_CODE":"916100006237477685","PARENT_ARE":"619900","IS_ZDY":1,"IS_XKZ":1,"IS_ONLINE":1,"CORP_TYPE":1}},
{"type":"Feature","geometry":{"type":"Point","coordinates":[109.43694444400006,34.50000000000006]},"properties":{"OBJECTID":99,"CORP_ID":256,"CORP_CODE":"-","CORP_NAME":"陕西渭河煤化工集团有限责任公司","AREA_CODE":"610561","PX":109.436944444,"PY":34.5,"ADRESS":"陕西省渭南市高新技术产业开发区","FR":"郭建功","TEL":"","CUSC_CODE":"91610000220530513M","PARENT_ARE":"610500","IS_ZDY":1,"IS_XKZ":1,"IS_ONLINE":1,"CORP_TYPE":3}},
{"type":"Feature","geometry":{"type":"Point","coordinates":[108.17343888900007,34.23766944400006]},"properties":{"OBJECTID":100,"CORP_ID":259,"CORP_CODE":"-","CORP_NAME":"陕西武功东方纸业集团东鹏造纸有限公司","AREA_CODE":"610431","PX":108.173438889,"PY":34.2376694444,"ADRESS":"陕西省武功县大庄镇方寨村","FR":"赵胜利","TEL":"","CUSC_CODE":"916104317326735778","PARENT_ARE":"610400","IS_ZDY":1,"IS_XKZ":1,"IS_ONLINE":1,"CORP_TYPE":3}},
{"type":"Feature","geometry":{"type":"Point","coordinates":[110.39388888900004,33.83777777800003]},"properties":{"OBJECTID":101,"CORP_ID":265,"CORP_CODE":"-","CORP_NAME":"陕西锌业有限公司","AREA_CODE":"611002","PX":110.393888889,"PY":33.8377777778,"ADRESS":"陕西省商洛市商州区沙河子镇","FR":"何学斌","TEL":"","CUSC_CODE":"91611000710099527Q","PARENT_ARE":"611000","IS_ZDY":1,"IS_XKZ":1,"IS_ONLINE":1,"CORP_TYPE":3}},
{"type":"Feature","geometry":{"type":"Point","coordinates":[108.39761944400004,34.232138889000055]},"properties":{"OBJECTID":102,"CORP_ID":266,"CORP_CODE":"66117448-96","CORP_NAME":"陕西欣雅纸业有限公司","AREA_CODE":"610481","PX":108.397619444,"PY":34.2321388889,"ADRESS":"兴平市丰仪工业区","FR":"彭晓宏","TEL":"029-38266112","CUSC_CODE":"916104816611744896","PARENT_ARE":"610400","IS_ZDY":1,"IS_XKZ":1,"IS_ONLINE":1,"CORP_TYPE":3}},
{"type":"Feature","geometry":{"type":"Point","coordinates":[108.49591944400004,34.28971111100003]},"properties":{"OBJECTID":103,"CORP_ID":267,"CORP_CODE":"29420816-4","CORP_NAME":"陕西兴化集团有限责任公司","AREA_CODE":"610481","PX":108.495919444,"PY":34.2897111111,"ADRESS":"陕西省咸阳市兴平市东城区","FR":"樊洺僖","TEL":"","CUSC_CODE":"916100002942081649","PARENT_ARE":"610400","IS_ZDY":1,"IS_XKZ":1,"IS_ONLINE":1,"CORP_TYPE":3}},
{"type":"Feature","geometry":{"type":"Point","coordinates":[109.33756944400005,32.82836944400003]},"properties":{"OBJECTID":104,"CORP_ID":270,"CORP_CODE":"-","CORP_NAME":"陕西旬阳大地复肥有限公司","AREA_CODE":"610928","PX":109.337569444,"PY":32.8283694444,"ADRESS":"河北路46号","FR":"刘进琼","TEL":"7224120","CUSC_CODE":"916109287486067906","PARENT_ARE":"610900","IS_ZDY":0,"IS_XKZ":1,"IS_ONLINE":1,"CORP_TYPE":3}},
{"type":"Feature","geometry":{"type":"Point","coordinates":[110.15548055600004,38.723611111000025]},"properties":{"OBJECTID":105,"CORP_ID":271,"CORP_CODE":"73534892-1","CORP_NAME":"陕西亚华煤电集团锦界热电有限公司","AREA_CODE":"610821","PX":110.155480556,"PY":38.7236111111,"ADRESS":"陕西省榆林市神府经济开发区锦界工业园区","FR":"王礼","TEL":"","CUSC_CODE":"91610806735348921D","PARENT_ARE":"610800","IS_ZDY":1,"IS_XKZ":1,"IS_ONLINE":1,"CORP_TYPE":3}},
{"type":"Feature","geometry":{"type":"Point","coordinates":[109.34944444400008,35.613888889000066]},"properties":{"OBJECTID":106,"CORP_ID":273,"CORP_CODE":"68477839-X","CORP_NAME":"陕西延长石油（集团）有限责任公司延安石油化工厂","AREA_CODE":"610629","PX":109.349444444,"PY":35.6138888889,"ADRESS":"杨庄河","FR":"王继宏","TEL":"13468968248","CUSC_CODE":"9161060068477839XJ","PARENT_ARE":"610600","IS_ZDY":1,"IS_XKZ":1,"IS_ONLINE":1,"CORP_TYPE":3}},
{"type":"Feature","geometry":{"type":"Point","coordinates":[109.35638888900007,35.64972222200004]},"properties":{"OBJECTID":107,"CORP_ID":274,"CORP_CODE":"22350569-8","CORP_NAME":"陕西延长石油（集团）有限责任公司延安炼油厂","AREA_CODE":"610629","PX":109.356388889,"PY":35.6497222222,"ADRESS":"","FR":"兰建文","TEL":"","CUSC_CODE":"91610600223505698H","PARENT_ARE":"610600","IS_ZDY":1,"IS_XKZ":1,"IS_ONLINE":1,"CORP_TYPE":3}},
{"type":"Feature","geometry":{"type":"Point","coordinates":[110.07570000000004,33.785380556000064]},"properties":{"OBJECTID":108,"CORP_ID":275,"CORP_CODE":"-","CORP_NAME":"陕西延长石油集团氟硅化工有限公司","AREA_CODE":"611002","PX":110.0757,"PY":33.7853805556,"ADRESS":"陕西省商洛市商州区氟硅化工产业园区","FR":"杨峰斌","TEL":"","CUSC_CODE":"91611000687964737F","PARENT_ARE":"611000","IS_ZDY":1,"IS_XKZ":1,"IS_ONLINE":1,"CORP_TYPE":3}},
{"type":"Feature","geometry":{"type":"Point","coordinates":[108.82540000000006,37.58261111100006]},"properties":{"OBJECTID":109,"CORP_ID":276,"CORP_CODE":"-","CORP_NAME":"陕西延长石油（集团）有限责任公司榆林炼油厂","AREA_CODE":"610824","PX":108.8254,"PY":37.5826111111,"ADRESS":"陕西省榆林市靖边县河东","FR":"曹培宽","TEL":"","CUSC_CODE":"916108002239374742","PARENT_ARE":"610800","IS_ZDY":1,"IS_XKZ":1,"IS_ONLINE":1,"CORP_TYPE":3}},
{"type":"Feature","geometry":{"type":"Point","coordinates":[110.34005000000008,39.13036111100007]},"properties":{"OBJECTID":110,"CORP_ID":277,"CORP_CODE":"66411053-6","CORP_NAME":"陕西延长石油四海煤化工有限公司","AREA_CODE":"610821","PX":110.34005,"PY":39.1303611111,"ADRESS":"神木市孙家岔镇王洛沟村","FR":"李建林","TEL":"18609190933","CUSC_CODE":"91610821664110536C","PARENT_ARE":"610800","IS_ZDY":1,"IS_XKZ":1,"IS_ONLINE":0,"CORP_TYPE":3}},
{"type":"Feature","geometry":{"type":"Point","coordinates":[108.49681111100006,34.28481944400005]},"properties":{"OBJECTID":111,"CORP_ID":278,"CORP_CODE":"-","CORP_NAME":"陕西延长石油兴化化工有限公司","AREA_CODE":"610481","PX":108.496811111,"PY":34.2848194444,"ADRESS":"陕西省咸阳市兴平市东城区","FR":"樊洺僖","TEL":"","CUSC_CODE":"91610000687956913N","PARENT_ARE":"610400","IS_ZDY":1,"IS_XKZ":1,"IS_ONLINE":1,"CORP_TYPE":3}},
{"type":"Feature","geometry":{"type":"Point","coordinates":[109.83972222200003,37.00500000000005]},"properties":{"OBJECTID":112,"CORP_ID":279,"CORP_CODE":"-","CORP_NAME":"陕西延长石油（集团）有限责任公司永坪炼油厂","AREA_CODE":"610622","PX":109.839722222,"PY":37.005,"ADRESS":"樊家沟","FR":"冯奇国","TEL":"","CUSC_CODE":"91610600923500687Q","PARENT_ARE":"610600","IS_ZDY":1,"IS_XKZ":1,"IS_ONLINE":1,"CORP_TYPE":3}},
{"type":"Feature","geometry":{"type":"Point","coordinates":[109.58458055600005,35.07023055600007]},"properties":{"OBJECTID":113,"CORP_ID":281,"CORP_CODE":"-","CORP_NAME":"蒲城尧柏特种水泥有限公司","AREA_CODE":"610526","PX":109.584580556,"PY":35.0702305556,"ADRESS":"山东村","FR":"高绪利","TEL":"","CUSC_CODE":"91610526MA6Y7E9J8Y","PARENT_ARE":"610500","IS_ZDY":1,"IS_XKZ":1,"IS_ONLINE":1,"CORP_TYPE":1}},
{"type":"Feature","geometry":{"type":"Point","coordinates":[109.06472222200006,34.93500000000006]},"properties":{"OBJECTID":114,"CORP_ID":283,"CORP_CODE":"-","CORP_NAME":"铜川药王山生态水泥有限公司","AREA_CODE":"610204","PX":109.064722222,"PY":34.935,"ADRESS":"陕西省铜川市耀州区惠塬工业园区","FR":"唐生辉","TEL":"18091931515","CUSC_CODE":"91610200074542400J","PARENT_ARE":"610200","IS_ZDY":1,"IS_XKZ":1,"IS_ONLINE":1,"CORP_TYPE":1}},
{"type":"Feature","geometry":{"type":"Point","coordinates":[109.74050000000005,38.42876944400007]},"properties":{"OBJECTID":115,"CORP_ID":285,"CORP_CODE":"73538876-3","CORP_NAME":"陕西银河榆林发电有限公司","AREA_CODE":"610802","PX":109.7405,"PY":38.4287694444,"ADRESS":"上河村","FR":"杨国祥","TEL":"","CUSC_CODE":"91610000735388763B","PARENT_ARE":"610800","IS_ZDY":1,"IS_XKZ":1,"IS_ONLINE":1,"CORP_TYPE":1}},
{"type":"Feature","geometry":{"type":"Point","coordinates":[110.50896111100008,38.80418055600006]},"properties":{"OBJECTID":116,"CORP_ID":291,"CORP_CODE":"78369611-1","CORP_NAME":"陕西玉林集团阳光热电有限公司","AREA_CODE":"610821","PX":110.508961111,"PY":38.8041805556,"ADRESS":"陕西省神木县南郊","FR":"高玉林","TEL":"","CUSC_CODE":"91610821783696111K","PARENT_ARE":"610800","IS_ZDY":0,"IS_XKZ":1,"IS_ONLINE":1,"CORP_TYPE":3}},
{"type":"Feature","geometry":{"type":"Point","coordinates":[108.86739900000003,34.197606000000064]},"properties":{"OBJECTID":117,"CORP_ID":295,"CORP_CODE":"66413956-6","CORP_NAME":"陕西中兴林产科技股份有限公司","AREA_CODE":"618101","PX":108.867399,"PY":34.197606,"ADRESS":"杨凌示范区滨河东路","FR":"刘忠新","TEL":"029-87071928","CUSC_CODE":"916104036641395669","PARENT_ARE":"618100","IS_ZDY":1,"IS_XKZ":1,"IS_ONLINE":0,"CORP_TYPE":3}},
{"type":"Feature","geometry":{"type":"Point","coordinates":[107.03273055600005,33.044188889000054]},"properties":{"OBJECTID":118,"CORP_ID":298,"CORP_CODE":"-","CORP_NAME":"陕西中烟工业有限责任公司汉中卷烟厂","AREA_CODE":"610721","PX":107.032730556,"PY":33.0441888889,"ADRESS":"陕西省汉中市南郑区大河坎镇东大街28号","FR":"李亚锋","TEL":"","CUSC_CODE":"91610700671521456Y","PARENT_ARE":"610700","IS_ZDY":0,"IS_XKZ":1,"IS_ONLINE":1,"CORP_TYPE":3}},
{"type":"Feature","geometry":{"type":"Point","coordinates":[109.66800000000006,36.68300000000005]},"properties":{"OBJECTID":119,"CORP_ID":299,"CORP_CODE":"-","CORP_NAME":"陕西中烟工业有限责任公司延安卷烟厂","AREA_CODE":"610602","PX":109.668,"PY":36.683,"ADRESS":"经济技术开发区工业大道","FR":"雷建强","TEL":"","CUSC_CODE":"916106006715080830","PARENT_ARE":"610600","IS_ZDY":1,"IS_XKZ":1,"IS_ONLINE":1,"CORP_TYPE":3}},
{"type":"Feature","geometry":{"type":"Point","coordinates":[110.85843000000006,33.53962000000007]},"properties":{"OBJECTID":123,"CORP_ID":310,"CORP_CODE":"-","CORP_NAME":"商南县水泥建材有限公司","AREA_CODE":"611023","PX":110.85843,"PY":33.53962,"ADRESS":"陕西省商洛市商南县城关镇五里牌","FR":"吴正国","TEL":"13509141698","CUSC_CODE":"91611023295914095K","PARENT_ARE":"611000","IS_ZDY":0,"IS_XKZ":1,"IS_ONLINE":0,"CORP_TYPE":1}},
{"type":"Feature","geometry":{"type":"Point","coordinates":[110.38791666700007,39.08722222200004]},"properties":{"OBJECTID":125,"CORP_ID":313,"CORP_CODE":"-","CORP_NAME":"陕西恒源投资集团发电有限公司","AREA_CODE":"610821","PX":110.387916667,"PY":39.0872222222,"ADRESS":"神府经济开发区神树塔小区","FR":"徐玉忠","TEL":"","CUSC_CODE":"91610806741251560K","PARENT_ARE":"610800","IS_ZDY":1,"IS_XKZ":1,"IS_ONLINE":1,"CORP_TYPE":3}},
{"type":"Feature","geometry":{"type":"Point","coordinates":[110.40555555600008,39.22055555600008]},"properties":{"OBJECTID":126,"CORP_ID":316,"CORP_CODE":"68795601-6","CORP_NAME":"神华神东电力有限责任公司郭家湾电厂","AREA_CODE":"610822","PX":110.405555556,"PY":39.2205555556,"ADRESS":"陕西省府谷县大昌汗乡郭家湾","FR":"刘志江","TEL":"","CUSC_CODE":"916108226879560162","PARENT_ARE":"610800","IS_ZDY":1,"IS_XKZ":1,"IS_ONLINE":1,"CORP_TYPE":3}},
{"type":"Feature","geometry":{"type":"Point","coordinates":[110.46714000000009,38.986433000000034]},"properties":{"OBJECTID":127,"CORP_ID":318,"CORP_CODE":"75884861-1","CORP_NAME":"国家能源集团陕西神木发电有限责任公司","AREA_CODE":"610821","PX":110.46714,"PY":38.986433,"ADRESS":"店塔工业小区","FR":"尚呼平","TEL":"","CUSC_CODE":"91610806758848611Y","PARENT_ARE":"610800","IS_ZDY":1,"IS_XKZ":1,"IS_ONLINE":1,"CORP_TYPE":3}},
{"type":"Feature","geometry":{"type":"Point","coordinates":[110.18841300000008,38.75657400000006]},"properties":{"OBJECTID":128,"CORP_ID":319,"CORP_CODE":"74864649-3","CORP_NAME":"陕西神木化学工业有限公司","AREA_CODE":"610821","PX":110.188413,"PY":38.756574,"ADRESS":"神木县神府经济开发区锦界工业园区","FR":"张鹏","TEL":"13609264213","CUSC_CODE":"91610000748646493C","PARENT_ARE":"610800","IS_ZDY":1,"IS_XKZ":1,"IS_ONLINE":1,"CORP_TYPE":3}},
{"type":"Feature","geometry":{"type":"Point","coordinates":[110.17951944400005,38.71038888900006]},"properties":{"OBJECTID":129,"CORP_ID":321,"CORP_CODE":"-","CORP_NAME":"神木市东风金属镁有限公司","AREA_CODE":"610821","PX":110.179519444,"PY":38.7103888889,"ADRESS":"陕西省榆林市神木市锦界工业园区","FR":"赵向东","TEL":"","CUSC_CODE":"91610821758816740M","PARENT_ARE":"610800","IS_ZDY":1,"IS_XKZ":1,"IS_ONLINE":0,"CORP_TYPE":3}},
{"type":"Feature","geometry":{"type":"Point","coordinates":[110.35928400000006,39.144345000000044]},"properties":{"OBJECTID":130,"CORP_ID":322,"CORP_CODE":"-","CORP_NAME":"神木市恒润煤化工有限公司","AREA_CODE":"610821","PX":110.359284,"PY":39.144345,"ADRESS":"兰炭产业特色园区燕家塔片区","FR":"张雄虎","TEL":"0912-8463166","CUSC_CODE":"91610821687963603D","PARENT_ARE":"610800","IS_ZDY":1,"IS_XKZ":0,"IS_ONLINE":0,"CORP_TYPE":1}},
{"type":"Feature","geometry":{"type":"Point","coordinates":[110.25794700000006,39.00642300000004]},"properties":{"OBJECTID":131,"CORP_ID":323,"CORP_CODE":"68477395-1","CORP_NAME":"神木市恒升煤化工有限责任公司","AREA_CODE":"610821","PX":110.257947,"PY":39.006423,"ADRESS":"神木市柠条塔工业园区","FR":"王继虎","TEL":"","CUSC_CODE":"91610821684773951D","PARENT_ARE":"610800","IS_ZDY":1,"IS_XKZ":1,"IS_ONLINE":1,"CORP_TYPE":3}},
{"type":"Feature","geometry":{"type":"Point","coordinates":[110.25027777800005,39.01194444400005]},"properties":{"OBJECTID":132,"CORP_ID":327,"CORP_CODE":"-","CORP_NAME":"神木市江泰煤化工有限责任公司","AREA_CODE":"610821","PX":110.250277778,"PY":39.0119444444,"ADRESS":"柠条塔工业园区","FR":"刘旺堂","TEL":"0912-8457289","CUSC_CODE":"916108216679832524","PARENT_ARE":"610800","IS_ZDY":1,"IS_XKZ":1,"IS_ONLINE":1,"CORP_TYPE":3}},
{"type":"Feature","geometry":{"type":"Point","coordinates":[110.35661944400005,39.13116111100004]},"properties":{"OBJECTID":133,"CORP_ID":328,"CORP_CODE":"76633684-W","CORP_NAME":"神木县龙华阳光发电有限责任公司","AREA_CODE":"610821","PX":110.356619444,"PY":39.1311611111,"ADRESS":"陕西省榆林市神木县孙家岔镇燕家塔村","FR":"刘小毅","TEL":"","CUSC_CODE":"91610821766336843W","PARENT_ARE":"610800","IS_ZDY":1,"IS_XKZ":1,"IS_ONLINE":1,"CORP_TYPE":3}},
{"type":"Feature","geometry":{"type":"Point","coordinates":[110.25878888900007,39.261100000000056]},"properties":{"OBJECTID":134,"CORP_ID":329,"CORP_CODE":"-","CORP_NAME":"神木县煤建水泥有限公司","AREA_CODE":"610821","PX":110.258788889,"PY":39.2611,"ADRESS":"陕西省榆林市神木县大柳塔镇前柳塔村","FR":"郝建荣","TEL":"13909122459","CUSC_CODE":"916108212240035186","PARENT_ARE":"610800","IS_ZDY":0,"IS_XKZ":1,"IS_ONLINE":0,"CORP_TYPE":1}},
{"type":"Feature","geometry":{"type":"Point","coordinates":[110.57476944400008,38.967400000000055]},"properties":{"OBJECTID":135,"CORP_ID":330,"CORP_CODE":"-","CORP_NAME":"神木市漠源鼎泰镁业有限责任公司","AREA_CODE":"610821","PX":110.574769444,"PY":38.9674,"ADRESS":"陕西省榆林市神木市永兴办事处前店工业集中区","FR":"张晓明","TEL":"13636880881","CUSC_CODE":"91610821677901740Y","PARENT_ARE":"610800","IS_ZDY":1,"IS_XKZ":1,"IS_ONLINE":0,"CORP_TYPE":1}},
{"type":"Feature","geometry":{"type":"Point","coordinates":[110.38722222200005,39.08666666700003]},"properties":{"OBJECTID":136,"CORP_ID":332,"CORP_CODE":"79076048-4L","CORP_NAME":"神木县朱概塔资源综合利用发电有限公司","AREA_CODE":"610821","PX":110.387222222,"PY":39.0866666667,"ADRESS":"陕西省榆林市神木县孙家岔镇朱概塔村","FR":"张宏亮","TEL":"","CUSC_CODE":"91610821790760484L","PARENT_ARE":"610800","IS_ZDY":1,"IS_XKZ":1,"IS_ONLINE":1,"CORP_TYPE":3}},
{"type":"Feature","geometry":{"type":"Point","coordinates":[110.25466944400006,39.013450000000034]},"properties":{"OBJECTID":137,"CORP_ID":333,"CORP_CODE":"-91610821677922285w","CORP_NAME":"神木县顺德煤化工有限公司","AREA_CODE":"610821","PX":110.254669444,"PY":39.01345,"ADRESS":"陕西省榆林市神木县孙家岔镇柠条塔工业园区","FR":"李子雄","TEL":"","CUSC_CODE":"91610821677922285W","PARENT_ARE":"610800","IS_ZDY":1,"IS_XKZ":1,"IS_ONLINE":1,"CORP_TYPE":3}},
{"type":"Feature","geometry":{"type":"Point","coordinates":[110.27305555600009,39.17833333300007]},"properties":{"OBJECTID":138,"CORP_ID":334,"CORP_CODE":"69114767-6","CORP_NAME":"神木县腾远煤化工有限公司","AREA_CODE":"610821","PX":110.273055556,"PY":39.1783333333,"ADRESS":"陕西省榆林市神木县孙家岔刘家沟村","FR":"李金平","TEL":"","CUSC_CODE":"91610821691147676K","PARENT_ARE":"610800","IS_ZDY":1,"IS_XKZ":1,"IS_ONLINE":1,"CORP_TYPE":3}},
{"type":"Feature","geometry":{"type":"Point","coordinates":[110.35498055600004,39.16603055600007]},"properties":{"OBJECTID":139,"CORP_ID":335,"CORP_CODE":"67511700-4","CORP_NAME":"神木县同得利煤化工有限公司","AREA_CODE":"610821","PX":110.354980556,"PY":39.1660305556,"ADRESS":"陕西省神木县大柳塔镇何家塔工业园区","FR":"贺治华","TEL":"","CUSC_CODE":"91610821675117004H","PARENT_ARE":"610800","IS_ZDY":1,"IS_XKZ":1,"IS_ONLINE":1,"CORP_TYPE":3}},
{"type":"Feature","geometry":{"type":"Point","coordinates":[110.38416666700004,39.10333333300008]},"properties":{"OBJECTID":140,"CORP_ID":337,"CORP_CODE":"75520578-4","CORP_NAME":"神木市祥荣机制兰炭有限公司","AREA_CODE":"610821","PX":110.384166667,"PY":39.1033333333,"ADRESS":"何家塔工业园区","FR":"张双雄","TEL":"0912-8695801","CUSC_CODE":"916108217552057845","PARENT_ARE":"610800","IS_ZDY":1,"IS_XKZ":1,"IS_ONLINE":1,"CORP_TYPE":3}},
{"type":"Feature","geometry":{"type":"Point","coordinates":[110.64472222200004,38.83777777800003]},"properties":{"OBJECTID":141,"CORP_ID":338,"CORP_CODE":"-","CORP_NAME":"神木县兴杨金属镁有限公司","AREA_CODE":"610821","PX":110.644722222,"PY":38.8377777778,"ADRESS":"陕西省榆林市神木市永兴办事处圪针崖村","FR":"杨留保","TEL":"15929226868","CUSC_CODE":"916108217552325636","PARENT_ARE":"610800","IS_ZDY":1,"IS_XKZ":1,"IS_ONLINE":1,"CORP_TYPE":3}},
{"type":"Feature","geometry":{"type":"Point","coordinates":[110.30688888900005,39.16716111100004]},"properties":{"OBJECTID":142,"CORP_ID":339,"CORP_CODE":"-","CORP_NAME":"神木市兴义源物资贸易有限公司","AREA_CODE":"610821","PX":110.306888889,"PY":39.1671611111,"ADRESS":"陕西省榆林市神木市孙家岔镇陈家湾工业区","FR":"高文考","TEL":"","CUSC_CODE":"916108217869920396","PARENT_ARE":"610800","IS_ZDY":1,"IS_XKZ":1,"IS_ONLINE":1,"CORP_TYPE":3}},
{"type":"Feature","geometry":{"type":"Point","coordinates":[108.42140000000006,34.49941111100003]},"properties":{"OBJECTID":145,"CORP_ID":348,"CORP_CODE":"72735008-7","CORP_NAME":"通达果汁礼泉有限公司","AREA_CODE":"610425","PX":108.4214,"PY":34.4994111111,"ADRESS":"陕西省咸阳市礼泉县北二环路东段","FR":"李强","TEL":"02935993091","CUSC_CODE":"916104257273500877","PARENT_ARE":"610400","IS_ZDY":0,"IS_XKZ":1,"IS_ONLINE":0,"CORP_TYPE":3}},
{"type":"Feature","geometry":{"type":"Point","coordinates":[109.02778055600004,35.02801944400005]},"properties":{"OBJECTID":146,"CORP_ID":357,"CORP_CODE":"-","CORP_NAME":"铜川声威建材有限责任公司","AREA_CODE":"610202","PX":109.027780556,"PY":35.0280194444,"ADRESS":"铜川市王益区黄堡镇李家沟村","FR":"赵挺","TEL":"","CUSC_CODE":"91610200755224002T","PARENT_ARE":"610200","IS_ZDY":1,"IS_XKZ":1,"IS_ONLINE":1,"CORP_TYPE":1}},
{"type":"Feature","geometry":{"type":"Point","coordinates":[109.03910000000008,35.01540000000006]},"properties":{"OBJECTID":147,"CORP_ID":361,"CORP_CODE":"-","CORP_NAME":"铜川市矿山水泥有限公司","AREA_CODE":"610202","PX":109.0391,"PY":35.0154,"ADRESS":"耀州窑文化基地（李家沟村北）","FR":"郭仕猛","TEL":"","CUSC_CODE":"9161020077002499XT","PARENT_ARE":"610200","IS_ZDY":0,"IS_XKZ":1,"IS_ONLINE":0,"CORP_TYPE":1}},
{"type":"Feature","geometry":{"type":"Point","coordinates":[109.06321111100004,35.060488889000055]},"properties":{"OBJECTID":148,"CORP_ID":363,"CORP_CODE":"77698179-0","CORP_NAME":"铜川市污水处理厂","AREA_CODE":"610202","PX":109.063211111,"PY":35.0604888889,"ADRESS":"铜川市王益区中兴堤13号","FR":"梁峰","TEL":"15129573018","CUSC_CODE":"91610200776981790T","PARENT_ARE":"610200","IS_ZDY":1,"IS_XKZ":1,"IS_ONLINE":1,"CORP_TYPE":5}},
{"type":"Feature","geometry":{"type":"Point","coordinates":[109.04983888900006,34.93428888900007]},"properties":{"OBJECTID":150,"CORP_ID":366,"CORP_CODE":"71353644-6","CORP_NAME":"铜川市耀州区东立水泥厂","AREA_CODE":"610204","PX":109.049838889,"PY":34.9342888889,"ADRESS":"陕西省铜川市耀州区孙塬镇惠塬村","FR":"焦印丁","TEL":"","CUSC_CODE":"916102047135364465","PARENT_ARE":"610200","IS_ZDY":0,"IS_XKZ":1,"IS_ONLINE":0,"CORP_TYPE":1}},
{"type":"Feature","geometry":{"type":"Point","coordinates":[109.42148888900005,34.49313055600004]},"properties":{"OBJECTID":151,"CORP_ID":372,"CORP_CODE":"-916105017625687350","CORP_NAME":"渭南高新区海泰新型电子材料有限责任公司","AREA_CODE":"610561","PX":109.421488889,"PY":34.4931305556,"ADRESS":"陕西省渭南市高新技术产业开发区崇业路南段","FR":"袁江波","TEL":"","CUSC_CODE":"916105017625687350","PARENT_ARE":"610500","IS_ZDY":0,"IS_XKZ":1,"IS_ONLINE":1,"CORP_TYPE":3}},
{"type":"Feature","geometry":{"type":"Point","coordinates":[109.50651944400005,34.57501111100004]},"properties":{"OBJECTID":152,"CORP_ID":376,"CORP_CODE":"-","CORP_NAME":"渭南生秦肉类加工有限公司","AREA_CODE":"610562","PX":109.506519444,"PY":34.5750111111,"ADRESS":"陕西省渭南市经济技术开发区渭北产业园","FR":"马银海","TEL":"18191357028","CUSC_CODE":"916105006641208065","PARENT_ARE":"610500","IS_ZDY":1,"IS_XKZ":1,"IS_ONLINE":1,"CORP_TYPE":3}},
{"type":"Feature","geometry":{"type":"Point","coordinates":[109.44223888900007,34.51796944400007]},"properties":{"OBJECTID":154,"CORP_ID":380,"CORP_CODE":"-","CORP_NAME":"渭南高新区尚德水质净化有限公司","AREA_CODE":"610561","PX":109.442238889,"PY":34.5179694444,"ADRESS":"陕西省渭南市高新技术产业开发区新盛路","FR":"王少斌","TEL":"09132112233","CUSC_CODE":"91610500664145659U","PARENT_ARE":"610500","IS_ZDY":1,"IS_XKZ":1,"IS_ONLINE":1,"CORP_TYPE":3}},
{"type":"Feature","geometry":{"type":"Point","coordinates":[110.54222222200008,37.44027777800005]},"properties":{"OBJECTID":155,"CORP_ID":384,"CORP_CODE":"59332885-2","CORP_NAME":"吴堡冀东特种水泥有限公司","AREA_CODE":"610829","PX":110.542222222,"PY":37.4402777778,"ADRESS":"王家川村","FR":"张斌","TEL":"","CUSC_CODE":"916108295933288522","PARENT_ARE":"610800","IS_ZDY":1,"IS_XKZ":1,"IS_ONLINE":1,"CORP_TYPE":3}},
{"type":"Feature","geometry":{"type":"Point","coordinates":[109.27723055600006,34.42991944400006]},"properties":{"OBJECTID":158,"CORP_ID":389,"CORP_CODE":"-","CORP_NAME":"西安邦淇制油科技有限公司","AREA_CODE":"610115","PX":109.277230556,"PY":34.4299194444,"ADRESS":"西安市临潼区新丰镇环站南路","FR":"朱晓东","TEL":"","CUSC_CODE":"91610000727333922Y","PARENT_ARE":"610100","IS_ZDY":0,"IS_XKZ":1,"IS_ONLINE":1,"CORP_TYPE":3}},
{"type":"Feature","geometry":{"type":"Point","coordinates":[108.83158055600006,34.358461111000054]},"properties":{"OBJECTID":160,"CORP_ID":393,"CORP_CODE":"-","CORP_NAME":"西安顶益食品有限公司","AREA_CODE":"610162","PX":108.831580556,"PY":34.3584611111,"ADRESS":"草滩生态产业园尚苑路9999号","FR":"黎振宜","TEL":"","CUSC_CODE":"91610132623910924U","PARENT_ARE":"610100","IS_ZDY":0,"IS_XKZ":1,"IS_ONLINE":0,"CORP_TYPE":3}},
{"type":"Feature","geometry":{"type":"Point","coordinates":[109.23320400000006,34.66069600000003]},"properties":{"OBJECTID":161,"CORP_ID":395,"CORP_CODE":"22052116-6","CORP_NAME":"西安飞机工业（集团）有限责任公司","AREA_CODE":"610114","PX":109.233204,"PY":34.660696,"ADRESS":"","FR":"吴志鹏","TEL":"","CUSC_CODE":"91610000220521166W","PARENT_ARE":"610100","IS_ZDY":1,"IS_XKZ":0,"IS_ONLINE":1,"CORP_TYPE":3}},
{"type":"Feature","geometry":{"type":"Point","coordinates":[109.29545000000007,32.83508055600004]},"properties":{"OBJECTID":163,"CORP_ID":403,"CORP_CODE":"79794677-91610900797946775U","CORP_NAME":"安康市尧柏水泥有限公司","AREA_CODE":"610928","PX":109.29545,"PY":32.8350805556,"ADRESS":"柳村社区","FR":"马超","TEL":"15839735259","CUSC_CODE":"91610900797946775U","PARENT_ARE":"610900","IS_ZDY":1,"IS_XKZ":1,"IS_ONLINE":1,"CORP_TYPE":1}},
{"type":"Feature","geometry":{"type":"Point","coordinates":[107.62861111100005,34.22916666700007]},"properties":{"OBJECTID":166,"CORP_ID":412,"CORP_CODE":"76630141-3","CORP_NAME":"宝鸡阜丰生物科技有限公司","AREA_CODE":"610323","PX":107.628611111,"PY":34.2291666667,"ADRESS":"陕西省宝鸡市岐山县蔡家坡经济开发区安乐社区","FR":"王均成","TEL":"","CUSC_CODE":"91610300766301413G","PARENT_ARE":"610300","IS_ZDY":1,"IS_XKZ":1,"IS_ONLINE":1,"CORP_TYPE":3}},
{"type":"Feature","geometry":{"type":"Point","coordinates":[107.59646944400004,34.30436111100005]},"properties":{"OBJECTID":167,"CORP_ID":417,"CORP_CODE":"22147264-2","CORP_NAME":"宝鸡科达特种纸业有限责任公司","AREA_CODE":"610323","PX":107.596469444,"PY":34.3043611111,"ADRESS":"陕西省宝鸡市岐山县蔡家坡岐星工业园","FR":"侯宗科","TEL":"8565320","CUSC_CODE":"916103232214726426","PARENT_ARE":"610300","IS_ZDY":1,"IS_XKZ":1,"IS_ONLINE":1,"CORP_TYPE":3}},
{"type":"Feature","geometry":{"type":"Point","coordinates":[107.38611111100005,34.335277778000034]},"properties":{"OBJECTID":169,"CORP_ID":424,"CORP_CODE":"-","CORP_NAME":"宝鸡市同济水务有限公司","AREA_CODE":"610305","PX":107.386111111,"PY":34.3352777778,"ADRESS":"","FR":"张利","TEL":"","CUSC_CODE":"91610301MA6X9J9Q9G","PARENT_ARE":"610300","IS_ZDY":1,"IS_XKZ":1,"IS_ONLINE":1,"CORP_TYPE":3}},
{"type":"Feature","geometry":{"type":"Point","coordinates":[107.07725000000005,34.53685000000007]},"properties":{"OBJECTID":172,"CORP_ID":433,"CORP_CODE":"-","CORP_NAME":"宝鸡市众喜金陵河水泥有限公司","AREA_CODE":"610304","PX":107.07725,"PY":34.53685,"ADRESS":"陕西省宝鸡市陈仓区县功镇","FR":"范长虹","TEL":"","CUSC_CODE":"916103046815506134","PARENT_ARE":"610300","IS_ZDY":1,"IS_XKZ":1,"IS_ONLINE":1,"CORP_TYPE":3}},
{"type":"Feature","geometry":{"type":"Point","coordinates":[107.77185000000009,34.47461111100006]},"properties":{"OBJECTID":174,"CORP_ID":436,"CORP_CODE":"-","CORP_NAME":"宝鸡众喜凤凰山水泥有限公司","AREA_CODE":"610323","PX":107.77185,"PY":34.4746111111,"ADRESS":"陕西省岐山县建材工业园区(祝家庄镇)；岐星工业园区","FR":"范长虹","TEL":"","CUSC_CODE":"9161032368795546XJ","PARENT_ARE":"610300","IS_ZDY":1,"IS_XKZ":1,"IS_ONLINE":1,"CORP_TYPE":3}},
{"type":"Feature","geometry":{"type":"Point","coordinates":[108.83690000000007,34.17923888900003]},"properties":{"OBJECTID":175,"CORP_ID":441,"CORP_CODE":"-","CORP_NAME":"比亚迪汽车有限公司一厂","AREA_CODE":"610161","PX":108.8369,"PY":34.1792388889,"ADRESS":"西安市高新区新型工业园亚迪路2号","FR":"何志奇","TEL":"","CUSC_CODE":"91610131294204008Y","PARENT_ARE":"610100","IS_ZDY":1,"IS_XKZ":1,"IS_ONLINE":1,"CORP_TYPE":3}},
{"type":"Feature","geometry":{"type":"Point","coordinates":[107.17878888900009,33.18298888900006]},"properties":{"OBJECTID":179,"CORP_ID":453,"CORP_CODE":"-","CORP_NAME":"城固县福盛水泥有限公司","AREA_CODE":"610722","PX":107.178788889,"PY":33.1829888889,"ADRESS":"文光村","FR":"陈虎成","TEL":"","CUSC_CODE":"91610722709994225X","PARENT_ARE":"610700","IS_ZDY":0,"IS_XKZ":1,"IS_ONLINE":0,"CORP_TYPE":1}},
{"type":"Feature","geometry":{"type":"Point","coordinates":[108.60026111100007,34.783602778000045]},"properties":{"OBJECTID":181,"CORP_ID":457,"CORP_CODE":"-","CORP_NAME":"淳化恒兴果汁有限公司","AREA_CODE":"610430","PX":108.600261111,"PY":34.7836027778,"ADRESS":"陕西省咸阳市淳化县城关镇大店桥东","FR":"李强","TEL":"029-32775289","CUSC_CODE":"91610400758819079G","PARENT_ARE":"610400","IS_ZDY":0,"IS_XKZ":1,"IS_ONLINE":1,"CORP_TYPE":3}},
{"type":"Feature","geometry":{"type":"Point","coordinates":[110.22805555600007,39.27361111100004]},"properties":{"OBJECTID":184,"CORP_ID":460,"CORP_CODE":"-","CORP_NAME":"神华神东电力有限责任公司大柳塔热电厂","AREA_CODE":"610821","PX":110.228055556,"PY":39.2736111111,"ADRESS":"陕西省榆林市神木县大柳塔镇","FR":"宋畅","TEL":"","CUSC_CODE":"91610000710924961H","PARENT_ARE":"610800","IS_ZDY":1,"IS_XKZ":1,"IS_ONLINE":1,"CORP_TYPE":3}},
{"type":"Feature","geometry":{"type":"Point","coordinates":[107.29472222200008,34.38027777800005]},"properties":{"OBJECTID":185,"CORP_ID":461,"CORP_CODE":"67154991-8(00)","CORP_NAME":"大唐宝鸡热电厂","AREA_CODE":"610305","PX":107.294722222,"PY":34.3802777778,"ADRESS":"陕西省宝鸡市高新开发区千河镇宋家庄","FR":"姚西增","TEL":"","CUSC_CODE":"91610301671549918G","PARENT_ARE":"610300","IS_ZDY":1,"IS_XKZ":1,"IS_ONLINE":1,"CORP_TYPE":3}},
{"type":"Feature","geometry":{"type":"Point","coordinates":[108.07521944400008,35.06170000000003]},"properties":{"OBJECTID":186,"CORP_ID":462,"CORP_CODE":"-","CORP_NAME":"陕西华电瑶池发电有限公司","AREA_CODE":"610427","PX":108.075219444,"PY":35.0617,"ADRESS":"陕西省咸阳市彬县城关镇朱家湾村","FR":"王向儒","TEL":"","CUSC_CODE":"916104275622416233","PARENT_ARE":"610400","IS_ZDY":1,"IS_XKZ":1,"IS_ONLINE":1,"CORP_TYPE":3}},
{"type":"Feature","geometry":{"type":"Point","coordinates":[110.55527777800006,35.58944444400004]},"properties":{"OBJECTID":187,"CORP_ID":463,"CORP_CODE":"29420666-0","CORP_NAME":"大唐韩城第二发电有限责任公司","AREA_CODE":"618201","PX":110.555277778,"PY":35.5894444444,"ADRESS":"陕西省韩城市龙门镇李村","FR":"许贵民","TEL":"","CUSC_CODE":"91610000294206660T","PARENT_ARE":"618200","IS_ZDY":1,"IS_XKZ":1,"IS_ONLINE":1,"CORP_TYPE":3}},
{"type":"Feature","geometry":{"type":"Point","coordinates":[108.75166666700005,34.090833333000035]},"properties":{"OBJECTID":188,"CORP_ID":465,"CORP_CODE":"-","CORP_NAME":"大唐陕西发电有限公司西安热电厂","AREA_CODE":"610125","PX":108.751666667,"PY":34.0908333333,"ADRESS":"陕西省西安市户县余下镇","FR":"魏宏文","TEL":"","CUSC_CODE":"916100007552286877","PARENT_ARE":"610100","IS_ZDY":1,"IS_XKZ":1,"IS_ONLINE":1,"CORP_TYPE":3}},
{"type":"Feature","geometry":{"type":"Point","coordinates":[106.15536800000007,33.35004800000007]},"properties":{"OBJECTID":189,"CORP_ID":468,"CORP_CODE":"78697256-4","CORP_NAME":"大唐略阳发电有限责任公司","AREA_CODE":"610727","PX":106.155368,"PY":33.350048,"ADRESS":"陕西省汉中市略阳县电厂路","FR":"范龙强","TEL":"","CUSC_CODE":"916107277869725648","PARENT_ARE":"610700","IS_ZDY":1,"IS_XKZ":1,"IS_ONLINE":1,"CORP_TYPE":1}},
{"type":"Feature","geometry":{"type":"Point","coordinates":[108.90583333300003,34.43861111100006]},"properties":{"OBJECTID":190,"CORP_ID":469,"CORP_CODE":"22170469-3","CORP_NAME":"大唐陕西发电有限公司渭河热电厂","AREA_CODE":"619903","PX":108.905833333,"PY":34.4386111111,"ADRESS":"肖家村","FR":"赵国兴","TEL":"","CUSC_CODE":"91611103221704693H","PARENT_ARE":"619900","IS_ZDY":1,"IS_XKZ":1,"IS_ONLINE":1,"CORP_TYPE":3}},
{"type":"Feature","geometry":{"type":"Point","coordinates":[110.97188888900007,39.063511111000025]},"properties":{"OBJECTID":196,"CORP_ID":482,"CORP_CODE":"-","CORP_NAME":"府谷县黄河集团龙华发电有限责任公司","AREA_CODE":"610822","PX":110.971888889,"PY":39.0635111111,"ADRESS":"府谷县孤山镇徐家峁村","FR":"苏振军","TEL":"13991092848","CUSC_CODE":"916108227799344049","PARENT_ARE":"610800","IS_ZDY":1,"IS_XKZ":1,"IS_ONLINE":1,"CORP_TYPE":1}},
{"type":"Feature","geometry":{"type":"Point","coordinates":[111.07194444400005,39.02777777800003]},"properties":{"OBJECTID":197,"CORP_ID":483,"CORP_CODE":"71005356-1","CORP_NAME":"府谷京府煤化有限责任公司","AREA_CODE":"610822","PX":111.071944444,"PY":39.0277777778,"ADRESS":"府谷县新民镇新尧工业园区","FR":"徐海林","TEL":"","CUSC_CODE":"91610822710053561Q","PARENT_ARE":"610800","IS_ZDY":1,"IS_XKZ":1,"IS_ONLINE":1,"CORP_TYPE":3}},
{"type":"Feature","geometry":{"type":"Point","coordinates":[110.78861111100008,39.184444444000064]},"properties":{"OBJECTID":198,"CORP_ID":484,"CORP_CODE":"-","CORP_NAME":"府谷县三联煤电化工有限责任公司","AREA_CODE":"610822","PX":110.788611111,"PY":39.1844444444,"ADRESS":"陕西省榆林市府谷县三道沟乡新庙村","FR":"徐海林","TEL":"15319598899","CUSC_CODE":"91610822MA7030C7X0","PARENT_ARE":"610800","IS_ZDY":1,"IS_XKZ":1,"IS_ONLINE":1,"CORP_TYPE":3}},
{"type":"Feature","geometry":{"type":"Point","coordinates":[110.40056111100006,39.22528055600003]},"properties":{"OBJECTID":199,"CORP_ID":486,"CORP_CODE":"77382678-7","CORP_NAME":"府谷县方正镁业有限责任公司","AREA_CODE":"610822","PX":110.400561111,"PY":39.2252805556,"ADRESS":"榆林市府谷县大昌汗乡郭家湾村","FR":"杨喜喜","TEL":"","CUSC_CODE":"91610822773826787T","PARENT_ARE":"610800","IS_ZDY":1,"IS_XKZ":1,"IS_ONLINE":1,"CORP_TYPE":3}},
{"type":"Feature","geometry":{"type":"Point","coordinates":[110.99972222200006,39.16666666700007]},"properties":{"OBJECTID":200,"CORP_ID":488,"CORP_CODE":"78695082-4","CORP_NAME":"府谷县恒源冶焦发电有限公司","AREA_CODE":"610822","PX":110.999722222,"PY":39.1666666667,"ADRESS":"陕西省府谷县孤山镇杨家畔村","FR":"王乃荣","TEL":"","CUSC_CODE":"916108227869508244","PARENT_ARE":"610800","IS_ZDY":1,"IS_XKZ":1,"IS_ONLINE":1,"CORP_TYPE":1}},
{"type":"Feature","geometry":{"type":"Point","coordinates":[110.69723055600008,39.09981944400005]},"properties":{"OBJECTID":202,"CORP_ID":490,"CORP_CODE":"74863491-9","CORP_NAME":"府谷县华顺镁业有限责任公司","AREA_CODE":"610822","PX":110.697230556,"PY":39.0998194444,"ADRESS":"陕西省榆林市府谷县新民镇龙王庙村","FR":"刘凤高","TEL":"","CUSC_CODE":"916108227486349192","PARENT_ARE":"610800","IS_ZDY":1,"IS_XKZ":1,"IS_ONLINE":1,"CORP_TYPE":3}},
{"type":"Feature","geometry":{"type":"Point","coordinates":[110.54243888900004,39.21961111100006]},"properties":{"OBJECTID":203,"CORP_ID":492,"CORP_CODE":"-","CORP_NAME":"府谷县金川鸿泰镁合金有限公司","AREA_CODE":"610822","PX":110.542438889,"PY":39.2196111111,"ADRESS":"府谷县老高川镇石尧店村","FR":"温永平","TEL":"","CUSC_CODE":"9161082269490584XB","PARENT_ARE":"610800","IS_ZDY":1,"IS_XKZ":1,"IS_ONLINE":1,"CORP_TYPE":3}},
{"type":"Feature","geometry":{"type":"Point","coordinates":[110.54040000000003,39.21710000000007]},"properties":{"OBJECTID":204,"CORP_ID":493,"CORP_CODE":"75522508-0","CORP_NAME":"府谷县金川镁业有限责任公司","AREA_CODE":"610822","PX":110.5404,"PY":39.2171,"ADRESS":"府谷县老高川乡石尧店村","FR":"王爱军","TEL":"13809129229","CUSC_CODE":"91610822755225080Y","PARENT_ARE":"610800","IS_ZDY":1,"IS_XKZ":1,"IS_ONLINE":1,"CORP_TYPE":3}},
{"type":"Feature","geometry":{"type":"Point","coordinates":[110.77397800000006,39.08723400000008]},"properties":{"OBJECTID":205,"CORP_ID":495,"CORP_CODE":"76634221-5","CORP_NAME":"府谷县金万通镁业有限责任公司","AREA_CODE":"610822","PX":110.773978,"PY":39.087234,"ADRESS":"陕西省榆林市府谷县新民镇打井塔村","FR":"白林旺","TEL":"","CUSC_CODE":"916108227663422157","PARENT_ARE":"610800","IS_ZDY":1,"IS_XKZ":1,"IS_ONLINE":1,"CORP_TYPE":3}},
{"type":"Feature","geometry":{"type":"Point","coordinates":[110.52193888900007,39.09471944400008]},"properties":{"OBJECTID":206,"CORP_ID":496,"CORP_CODE":"-","CORP_NAME":"府谷县漠源镁业煤化有限责任公司","AREA_CODE":"610822","PX":110.521938889,"PY":39.0947194444,"ADRESS":"府谷县大昌汗乡石岩塔村","FR":"张补明","TEL":"","CUSC_CODE":"916108226679923350","PARENT_ARE":"610800","IS_ZDY":1,"IS_XKZ":1,"IS_ONLINE":1,"CORP_TYPE":3}},
{"type":"Feature","geometry":{"type":"Point","coordinates":[110.75000000000006,39.25000000000006]},"properties":{"OBJECTID":207,"CORP_ID":497,"CORP_CODE":"66797318-5","CORP_NAME":"府谷县泰达煤化有限责任公司","AREA_CODE":"610822","PX":110.75,"PY":39.25,"ADRESS":"沙洼村","FR":"刘旭峰","TEL":"","CUSC_CODE":"91610822667973185H","PARENT_ARE":"610800","IS_ZDY":1,"IS_XKZ":1,"IS_ONLINE":1,"CORP_TYPE":3}},
{"type":"Feature","geometry":{"type":"Point","coordinates":[110.53305555600008,39.218530556000076]},"properties":{"OBJECTID":208,"CORP_ID":499,"CORP_CODE":"66797073-4","CORP_NAME":"府谷县万鑫煤电化有限责任公司","AREA_CODE":"610822","PX":110.533055556,"PY":39.2185305556,"ADRESS":"丁家伙盘工业园区","FR":"吴喜林","TEL":"","CUSC_CODE":"91610822667970734M","PARENT_ARE":"610800","IS_ZDY":1,"IS_XKZ":1,"IS_ONLINE":1,"CORP_TYPE":3}},
{"type":"Feature","geometry":{"type":"Point","coordinates":[110.52694444400004,39.23694444400007]},"properties":{"OBJECTID":209,"CORP_ID":501,"CORP_CODE":"74503237-3","CORP_NAME":"府谷县西源化工有限责任公司","AREA_CODE":"610822","PX":110.526944444,"PY":39.2369444444,"ADRESS":"陕西省榆林市府谷县老高川乡常房梁村","FR":"陈根永","TEL":"","CUSC_CODE":"916108227450323733","PARENT_ARE":"610800","IS_ZDY":1,"IS_XKZ":1,"IS_ONLINE":1,"CORP_TYPE":3}},
{"type":"Feature","geometry":{"type":"Point","coordinates":[110.58638888900003,39.21750000000003]},"properties":{"OBJECTID":210,"CORP_ID":502,"CORP_CODE":"66796860-X","CORP_NAME":"府谷县亚博兰炭镁电有限公司","AREA_CODE":"610822","PX":110.586388889,"PY":39.2175,"ADRESS":"陕西省榆林市府谷县老高川乡板墩沟工业集中区","FR":"袁高飞","TEL":"","CUSC_CODE":"9161082266796860XC","PARENT_ARE":"610800","IS_ZDY":1,"IS_XKZ":1,"IS_ONLINE":1,"CORP_TYPE":3}},
{"type":"Feature","geometry":{"type":"Point","coordinates":[110.40055000000007,39.26743888900006]},"properties":{"OBJECTID":211,"CORP_ID":503,"CORP_CODE":"-","CORP_NAME":"府谷县亿德镁合金有限责任公司","AREA_CODE":"610822","PX":110.40055,"PY":39.2674388889,"ADRESS":"府谷县大昌汗镇石岩塔村","FR":"贾艾平","TEL":"","CUSC_CODE":"91610822766330636W","PARENT_ARE":"610800","IS_ZDY":1,"IS_XKZ":1,"IS_ONLINE":1,"CORP_TYPE":3}},
{"type":"Feature","geometry":{"type":"Point","coordinates":[110.00472222200005,39.07250000000005]},"properties":{"OBJECTID":212,"CORP_ID":504,"CORP_CODE":"73535149-3","CORP_NAME":"榆林市天龙镁业有限责任公司","AREA_CODE":"610822","PX":110.004722222,"PY":39.0725,"ADRESS":"温李河村","FR":"陈明奇","TEL":"","CUSC_CODE":"91610822735351493Q","PARENT_ARE":"610800","IS_ZDY":1,"IS_XKZ":1,"IS_ONLINE":1,"CORP_TYPE":3}},
{"type":"Feature","geometry":{"type":"Point","coordinates":[110.54079100000007,39.18763100000007]},"properties":{"OBJECTID":213,"CORP_ID":505,"CORP_CODE":"67152046-1","CORP_NAME":"府谷县宇超煤电化有限责任公司","AREA_CODE":"610822","PX":110.540791,"PY":39.187631,"ADRESS":"丁家伙盘村","FR":"马回营","TEL":"","CUSC_CODE":"91610822671520461A","PARENT_ARE":"610800","IS_ZDY":1,"IS_XKZ":1,"IS_ONLINE":1,"CORP_TYPE":3}},
{"type":"Feature","geometry":{"type":"Point","coordinates":[110.75722222200005,39.08777777800003]},"properties":{"OBJECTID":214,"CORP_ID":506,"CORP_CODE":"69114662-2","CORP_NAME":"府谷县玉丰镁合金有限责任公司","AREA_CODE":"610822","PX":110.757222222,"PY":39.0877777778,"ADRESS":"陕西省榆林市府谷县新民镇打井塔村","FR":"王绍闻","TEL":"8946028","CUSC_CODE":"916108226911466229","PARENT_ARE":"610800","IS_ZDY":1,"IS_XKZ":1,"IS_ONLINE":1,"CORP_TYPE":3}},
{"type":"Feature","geometry":{"type":"Point","coordinates":[110.42305555600007,39.21527777800003]},"properties":{"OBJECTID":215,"CORP_ID":507,"CORP_CODE":"73799383-6","CORP_NAME":"府谷县众鑫有限责任公司","AREA_CODE":"610822","PX":110.423055556,"PY":39.2152777778,"ADRESS":"李家石畔村","FR":"张占良","TEL":"13379321667","CUSC_CODE":"91610822737993836U","PARENT_ARE":"610800","IS_ZDY":1,"IS_XKZ":1,"IS_ONLINE":1,"CORP_TYPE":3}},
{"type":"Feature","geometry":{"type":"Point","coordinates":[109.18758055600006,34.77948055600007]},"properties":{"OBJECTID":217,"CORP_ID":511,"CORP_CODE":"74861093-3","CORP_NAME":"富平中鲁果蔬汁有限公司","AREA_CODE":"610528","PX":109.187580556,"PY":34.7794805556,"ADRESS":"华朱村","FR":"李福海","TEL":"","CUSC_CODE":"91610528748610933C","PARENT_ARE":"610500","IS_ZDY":1,"IS_XKZ":1,"IS_ONLINE":1,"CORP_TYPE":3}},
{"type":"Feature","geometry":{"type":"Point","coordinates":[109.15250000000009,36.04444444400008]},"properties":{"OBJECTID":219,"CORP_ID":513,"CORP_CODE":"-","CORP_NAME":"陕西省水务集团甘泉县污水处理有限公司","AREA_CODE":"610627","PX":109.1525,"PY":36.0444444444,"ADRESS":"姚店村板桥沟","FR":"白海生","TEL":"","CUSC_CODE":"91610627MA6YJFME8Y","PARENT_ARE":"610600","IS_ZDY":1,"IS_XKZ":1,"IS_ONLINE":1,"CORP_TYPE":5}},
{"type":"Feature","geometry":{"type":"Point","coordinates":[109.11791600000004,34.53325700000005]},"properties":{"OBJECTID":220,"CORP_ID":515,"CORP_CODE":"-","CORP_NAME":"西安市高陵区昭慧利众污水处理有限公司","AREA_CODE":"610126","PX":109.117916,"PY":34.533257,"ADRESS":"西安市高陵区江毗路西段","FR":"何军荣","TEL":"","CUSC_CODE":"91610117552335837J","PARENT_ARE":"610100","IS_ZDY":1,"IS_XKZ":1,"IS_ONLINE":1,"CORP_TYPE":5}},
{"type":"Feature","geometry":{"type":"Point","coordinates":[108.81438888900004,34.53458055600004]},"properties":{"OBJECTID":221,"CORP_ID":516,"CORP_CODE":"73536908-7","CORP_NAME":"光明乳业（泾阳）有限公司","AREA_CODE":"619905","PX":108.814388889,"PY":34.5345805556,"ADRESS":"泾干大街西段2号","FR":"赵劲松","TEL":"02936218801","CUSC_CODE":"916111027353690878","PARENT_ARE":"619900","IS_ZDY":1,"IS_XKZ":1,"IS_ONLINE":0,"CORP_TYPE":3}},
{"type":"Feature","geometry":{"type":"Point","coordinates":[109.05570000000006,34.42591600000003]},"properties":{"OBJECTID":222,"CORP_ID":517,"CORP_CODE":"55936889-3","CORP_NAME":"国电宝鸡发电有限责任公司","AREA_CODE":"610322","PX":109.0557,"PY":34.425916,"ADRESS":"宝鸡市凤翔县长青工业园","FR":"彭东铭","TEL":"09173815076","CUSC_CODE":"916103225593688936","PARENT_ARE":"610300","IS_ZDY":1,"IS_XKZ":1,"IS_ONLINE":1,"CORP_TYPE":1}},
{"type":"Feature","geometry":{"type":"Point","coordinates":[110.15061111100005,38.72653055600006]},"properties":{"OBJECTID":223,"CORP_ID":518,"CORP_CODE":"-","CORP_NAME":"陕西国华锦界能源有限责任公司","AREA_CODE":"610821","PX":110.150611111,"PY":38.7265305556,"ADRESS":"陕西省榆林市榆神工业区锦界工业园区","FR":"刘建海","TEL":"","CUSC_CODE":"91610806755247976C","PARENT_ARE":"610800","IS_ZDY":1,"IS_XKZ":1,"IS_ONLINE":1,"CORP_TYPE":3}},
{"type":"Feature","geometry":{"type":"Point","coordinates":[110.47275800000006,35.56791800000008]},"properties":{"OBJECTID":224,"CORP_ID":524,"CORP_CODE":"74501045-7","CORP_NAME":"韩城黑猫炭黑有限责任公司","AREA_CODE":"618201","PX":110.472758,"PY":35.567918,"ADRESS":"陕西省韩城市昝村镇煤化工业园区","FR":"江华光","TEL":"","CUSC_CODE":"916105817450104574","PARENT_ARE":"618200","IS_ZDY":1,"IS_XKZ":1,"IS_ONLINE":1,"CORP_TYPE":1}},
{"type":"Feature","geometry":{"type":"Point","coordinates":[110.55290000000008,35.622761111000045]},"properties":{"OBJECTID":227,"CORP_ID":528,"CORP_CODE":"-","CORP_NAME":"韩城迪源建材有限责任公司","AREA_CODE":"618201","PX":110.5529,"PY":35.6227611111,"ADRESS":"陕西省韩城市龙门镇上广场","FR":"任忠德","TEL":"13892585625","CUSC_CODE":"91610581719781100A","PARENT_ARE":"618200","IS_ZDY":0,"IS_XKZ":1,"IS_ONLINE":0,"CORP_TYPE":1}},
{"type":"Feature","geometry":{"type":"Point","coordinates":[110.58112500000004,35.63705833300003]},"properties":{"OBJECTID":228,"CORP_ID":530,"CORP_CODE":"22223195-5","CORP_NAME":"韩城市合力煤焦有限责任公司","AREA_CODE":"618201","PX":110.581125,"PY":35.6370583333,"ADRESS":"龙门镇渚北村","FR":"张玉刚","TEL":"","CUSC_CODE":"91610581222231955N","PARENT_ARE":"618200","IS_ZDY":1,"IS_XKZ":1,"IS_ONLINE":0,"CORP_TYPE":3}},
{"type":"Feature","geometry":{"type":"Point","coordinates":[110.58722222200004,35.61916666700006]},"properties":{"OBJECTID":229,"CORP_ID":537,"CORP_CODE":"75524016-8","CORP_NAME":"韩城市裕隆焦化有限责任公司","AREA_CODE":"618201","PX":110.587222222,"PY":35.6191666667,"ADRESS":"龙门工业园区","FR":"王文选","TEL":"","CUSC_CODE":"","PARENT_ARE":"618200","IS_ZDY":1,"IS_XKZ":1,"IS_ONLINE":1,"CORP_TYPE":3}},
{"type":"Feature","geometry":{"type":"Point","coordinates":[110.56606111100007,35.61466944400007]},"properties":{"OBJECTID":230,"CORP_ID":539,"CORP_CODE":"22224057-9","CORP_NAME":"韩城同兴冶金有限责任公司","AREA_CODE":"618201","PX":110.566061111,"PY":35.6146694444,"ADRESS":"陕西省韩城市龙门镇","FR":"程维刚","TEL":"","CUSC_CODE":"","PARENT_ARE":"618200","IS_ZDY":0,"IS_XKZ":1,"IS_ONLINE":0,"CORP_TYPE":1}},
{"type":"Feature","geometry":{"type":"Point","coordinates":[110.53913888900007,35.61473055600004]},"properties":{"OBJECTID":231,"CORP_ID":540,"CORP_CODE":"-91610500577800205U","CORP_NAME":"韩城尧柏阳山庄水泥有限公司","AREA_CODE":"618201","PX":110.539138889,"PY":35.6147305556,"ADRESS":"阳山庄村","FR":"吴刚","TEL":"","CUSC_CODE":"91610500577800205U","PARENT_ARE":"618200","IS_ZDY":1,"IS_XKZ":1,"IS_ONLINE":1,"CORP_TYPE":1}},
{"type":"Feature","geometry":{"type":"Point","coordinates":[106.78916944400004,33.12101111100003]},"properties":{"OBJECTID":232,"CORP_ID":545,"CORP_CODE":"71973904-1","CORP_NAME":"汉中锌业有限责任公司","AREA_CODE":"610725","PX":106.789169444,"PY":33.1210111111,"ADRESS":"胡家渡村","FR":"何学斌","TEL":"","CUSC_CODE":"91610700719739041Y","PARENT_ARE":"610700","IS_ZDY":1,"IS_XKZ":1,"IS_ONLINE":1,"CORP_TYPE":3}},
{"type":"Feature","geometry":{"type":"Point","coordinates":[106.92588888900008,33.10403888900004]},"properties":{"OBJECTID":233,"CORP_ID":548,"CORP_CODE":"-","CORP_NAME":"汉中胶东建材有限公司","AREA_CODE":"610721","PX":106.925888889,"PY":33.1040388889,"ADRESS":"陕西省汉中市南郑县梁山镇梁山村","FR":"杨积广","TEL":"","CUSC_CODE":"91610721766332746E","PARENT_ARE":"610700","IS_ZDY":0,"IS_XKZ":1,"IS_ONLINE":0,"CORP_TYPE":1}},
{"type":"Feature","geometry":{"type":"Point","coordinates":[106.84166666700008,33.12916666700005]},"properties":{"OBJECTID":234,"CORP_ID":549,"CORP_CODE":"68156875-XT","CORP_NAME":"汉中勉县尧柏水泥有限公司","AREA_CODE":"610725","PX":106.841666667,"PY":33.1291666667,"ADRESS":"汉中勉县金泉镇拥西村","FR":"赵新海","TEL":"0916-3285909","CUSC_CODE":"9161070068156875XT","PARENT_ARE":"610700","IS_ZDY":1,"IS_XKZ":1,"IS_ONLINE":1,"CORP_TYPE":1}},
{"type":"Feature","geometry":{"type":"Point","coordinates":[107.05583333300007,33.044722222000075]},"properties":{"OBJECTID":236,"CORP_ID":553,"CORP_CODE":"71354018-9","CORP_NAME":"汉中市城市污水处理厂","AREA_CODE":"610702","PX":107.055833333,"PY":33.0447222222,"ADRESS":"光辉村","FR":"陈周华","TEL":"","CUSC_CODE":"126107007135401893","PARENT_ARE":"610700","IS_ZDY":1,"IS_XKZ":1,"IS_ONLINE":0,"CORP_TYPE":5}},
{"type":"Feature","geometry":{"type":"Point","coordinates":[107.37861111100005,34.414166667000075]},"properties":{"OBJECTID":237,"CORP_ID":555,"CORP_CODE":"-","CORP_NAME":"汉中西乡尧柏水泥有限公司","AREA_CODE":"610724","PX":107.378611111,"PY":34.4141666667,"ADRESS":"陕西省汉中市西乡县杨河镇","FR":"李平","TEL":"","CUSC_CODE":"91610700691116781R","PARENT_ARE":"610700","IS_ZDY":1,"IS_XKZ":1,"IS_ONLINE":1,"CORP_TYPE":1}},
{"type":"Feature","geometry":{"type":"Point","coordinates":[107.46851100000003,33.19742800000006]},"properties":{"OBJECTID":238,"CORP_ID":556,"CORP_CODE":"-","CORP_NAME":"汉中尧柏水泥有限公司","AREA_CODE":"610723","PX":107.468511,"PY":33.197428,"ADRESS":"谢村镇","FR":"牛庆祥","TEL":"","CUSC_CODE":"916107006715466107","PARENT_ARE":"610700","IS_ZDY":1,"IS_XKZ":1,"IS_ONLINE":1,"CORP_TYPE":3}},
{"type":"Feature","geometry":{"type":"Point","coordinates":[106.69360000000006,33.17036944400007]},"properties":{"OBJECTID":239,"CORP_ID":557,"CORP_CODE":"-","CORP_NAME":"汉中远东化肥有限责任公司","AREA_CODE":"610725","PX":106.6936,"PY":33.1703694444,"ADRESS":"陕西省汉中市勉县循环经济产业园（北区）","FR":"何敏","TEL":"","CUSC_CODE":"91610700752140874W","PARENT_ARE":"610700","IS_ZDY":0,"IS_XKZ":1,"IS_ONLINE":0,"CORP_TYPE":1}},
{"type":"Feature","geometry":{"type":"Point","coordinates":[110.01666666700004,35.200000000000045]},"properties":{"OBJECTID":240,"CORP_ID":560,"CORP_CODE":"-","CORP_NAME":"合阳康洁纸业有限责任公司","AREA_CODE":"610524","PX":110.016666667,"PY":35.2,"ADRESS":"管家河村","FR":"李耀兴","TEL":"","CUSC_CODE":"916105247907856148","PARENT_ARE":"610500","IS_ZDY":0,"IS_XKZ":1,"IS_ONLINE":1,"CORP_TYPE":3}},
{"type":"Feature","geometry":{"type":"Point","coordinates":[110.05078055600006,34.525369444000034]},"properties":{"OBJECTID":243,"CORP_ID":565,"CORP_CODE":"-","CORP_NAME":"华东医药（西安）博华制药有限公司","AREA_CODE":"610582","PX":110.050780556,"PY":34.5253694444,"ADRESS":"渭南市华阴市建设西路","FR":"方军","TEL":"0913-4359071","CUSC_CODE":"91610000710074995G","PARENT_ARE":"610500","IS_ZDY":0,"IS_XKZ":1,"IS_ONLINE":1,"CORP_TYPE":3}},
{"type":"Feature","geometry":{"type":"Point","coordinates":[109.93358888900008,34.533069444000034]},"properties":{"OBJECTID":244,"CORP_ID":567,"CORP_CODE":"70997471-8","CORP_NAME":"大唐秦岭发电有限公司","AREA_CODE":"610582","PX":109.933588889,"PY":34.5330694444,"ADRESS":"陕西省华阴市罗夫镇","FR":"马国斌","TEL":"","CUSC_CODE":"916100007099747183","PARENT_ARE":"610500","IS_ZDY":1,"IS_XKZ":1,"IS_ONLINE":1,"CORP_TYPE":3}},
{"type":"Feature","geometry":{"type":"Point","coordinates":[108.88778888900003,34.84963055600008]},"properties":{"OBJECTID":245,"CORP_ID":568,"CORP_CODE":"-","CORP_NAME":"华能铜川照金煤电有限公司","AREA_CODE":"610204","PX":108.887788889,"PY":34.8496305556,"ADRESS":"陕西省铜川市耀州区坡头镇华原村","FR":"刘军","TEL":"","CUSC_CODE":"91610000776987404X","PARENT_ARE":"610200","IS_ZDY":1,"IS_XKZ":1,"IS_ONLINE":1,"CORP_TYPE":1}},
{"type":"Feature","geometry":{"type":"Point","coordinates":[109.09266000000008,35.64775000000003]},"properties":{"OBJECTID":248,"CORP_ID":576,"CORP_CODE":"-","CORP_NAME":"黄陵矿业煤矸石发电有限公司","AREA_CODE":"610632","PX":109.09266,"PY":35.64775,"ADRESS":"陕西省延安市黄陵县店头镇鲁寺村","FR":"张代","TEL":"","CUSC_CODE":"916106327486392421","PARENT_ARE":"610600","IS_ZDY":1,"IS_XKZ":1,"IS_ONLINE":1,"CORP_TYPE":1}},
{"type":"Feature","geometry":{"type":"Point","coordinates":[107.63416666700004,34.57222222200005]},"properties":{"OBJECTID":249,"CORP_ID":579,"CORP_CODE":"73268143-8","CORP_NAME":"冀东海德堡（扶风）水泥有限公司","AREA_CODE":"610324","PX":107.634166667,"PY":34.5722222222,"ADRESS":"扶风县天度镇闫马村北","FR":"JEAN CLAUDE JAMAR","TEL":"0917-5359169","CUSC_CODE":"91610300732681438Q","PARENT_ARE":"610300","IS_ZDY":1,"IS_XKZ":1,"IS_ONLINE":1,"CORP_TYPE":3}},
{"type":"Feature","geometry":{"type":"Point","coordinates":[108.62878888900008,34.61013888900004]},"properties":{"OBJECTID":250,"CORP_ID":580,"CORP_CODE":"75882947-X","CORP_NAME":"冀东海德堡（泾阳）水泥有限公司","AREA_CODE":"610423","PX":108.628788889,"PY":34.6101388889,"ADRESS":"陕西省咸阳市泾阳县王桥镇","FR":"JEAN CLAUDE JAMAR","TEL":"","CUSC_CODE":"9161040075882947XW","PARENT_ARE":"610400","IS_ZDY":1,"IS_XKZ":1,"IS_ONLINE":1,"CORP_TYPE":3}},
{"type":"Feature","geometry":{"type":"Point","coordinates":[107.50043888900007,34.53966111100004]},"properties":{"OBJECTID":251,"CORP_ID":581,"CORP_CODE":"68476312-0","CORP_NAME":"金隅冀东凤翔环保科技有限公司","AREA_CODE":"610322","PX":107.500438889,"PY":34.5396611111,"ADRESS":"陕西省宝鸡市凤翔县田家庄镇河北村村北","FR":"韩保平","TEL":"","CUSC_CODE":"91610322684763120N","PARENT_ARE":"610300","IS_ZDY":1,"IS_XKZ":1,"IS_ONLINE":1,"CORP_TYPE":1}},
{"type":"Feature","geometry":{"type":"Point","coordinates":[109.97351111100005,34.340400000000045]},"properties":{"OBJECTID":252,"CORP_ID":584,"CORP_CODE":"-","CORP_NAME":"金堆城钼业集团有限公司","AREA_CODE":"610503","PX":109.973511111,"PY":34.3404,"ADRESS":"陕西省渭南市华州区金堆镇","FR":"程方方","TEL":"","CUSC_CODE":"916100002205322449","PARENT_ARE":"610500","IS_ZDY":1,"IS_XKZ":1,"IS_ONLINE":0,"CORP_TYPE":1}},
{"type":"Feature","geometry":{"type":"Point","coordinates":[108.92956944400004,34.36021111100007]},"properties":{"OBJECTID":253,"CORP_ID":586,"CORP_CODE":"-","CORP_NAME":"华润雪花啤酒（中国）有限公司西安分公司","AREA_CODE":"610162","PX":108.929569444,"PY":34.3602111111,"ADRESS":"陕西省西安市经开区凤城十二路99号","FR":"何秀侠","TEL":"","CUSC_CODE":"91610000770015188G","PARENT_ARE":"610100","IS_ZDY":1,"IS_XKZ":1,"IS_ONLINE":1,"CORP_TYPE":3}},
{"type":"Feature","geometry":{"type":"Point","coordinates":[108.57344400000005,34.620907000000045]},"properties":{"OBJECTID":254,"CORP_ID":592,"CORP_CODE":"68475356-3","CORP_NAME":"礼泉海螺水泥有限责任公司","AREA_CODE":"610425","PX":108.573444,"PY":34.620907,"ADRESS":"下韩村","FR":"范长虹","TEL":"","CUSC_CODE":"91610425684753563K","PARENT_ARE":"610400","IS_ZDY":1,"IS_XKZ":1,"IS_ONLINE":1,"CORP_TYPE":1}},
{"type":"Feature","geometry":{"type":"Point","coordinates":[108.99111111100007,34.87944444400006]},"properties":{"OBJECTID":256,"CORP_ID":597,"CORP_CODE":"75524409-7","CORP_NAME":"龙钢集团富平轧钢有限公司","AREA_CODE":"610528","PX":108.991111111,"PY":34.8794444444,"ADRESS":"北杨村","FR":"刘云峰","TEL":"0913-8678404","CUSC_CODE":"916105287552440975","PARENT_ARE":"610500","IS_ZDY":0,"IS_XKZ":1,"IS_ONLINE":1,"CORP_TYPE":1}},
{"type":"Feature","geometry":{"type":"Point","coordinates":[106.08353055600008,33.34150000000005]},"properties":{"OBJECTID":257,"CORP_ID":603,"CORP_CODE":"-","CORP_NAME":"略阳县象山水泥有限公司","AREA_CODE":"610727","PX":106.083530556,"PY":33.3415,"ADRESS":"陕西省汉中市略阳县横现河街道办事处石坝村","FR":"曾旺","TEL":"","CUSC_CODE":"91610727770021609T","PARENT_ARE":"610700","IS_ZDY":1,"IS_XKZ":1,"IS_ONLINE":1,"CORP_TYPE":1}},
{"type":"Feature","geometry":{"type":"Point","coordinates":[110.18261944400007,34.11886944400004]},"properties":{"OBJECTID":259,"CORP_ID":607,"CORP_CODE":"-","CORP_NAME":"洛南县污水处理厂","AREA_CODE":"611021","PX":110.182619444,"PY":34.1188694444,"ADRESS":"洛南县城关镇野里社区二组","FR":"李永生","TEL":"13909149765","CUSC_CODE":"12611021593329280R","PARENT_ARE":"611000","IS_ZDY":1,"IS_XKZ":1,"IS_ONLINE":1,"CORP_TYPE":5}},
{"type":"Feature","geometry":{"type":"Point","coordinates":[107.75208055600007,34.20956111100003]},"properties":{"OBJECTID":260,"CORP_ID":608,"CORP_CODE":"-916103262215262170","CORP_NAME":"眉县东兴水泥有限公司","AREA_CODE":"610326","PX":107.752080556,"PY":34.2095611111,"ADRESS":"眉县齐镇东凉阁村","FR":"马绪宝","TEL":"","CUSC_CODE":"916103262215262170","PARENT_ARE":"610300","IS_ZDY":0,"IS_XKZ":1,"IS_ONLINE":0,"CORP_TYPE":1}},
{"type":"Feature","geometry":{"type":"Point","coordinates":[107.65222222200003,33.983333333000076]},"properties":{"OBJECTID":261,"CORP_ID":609,"CORP_CODE":"22152166-X","CORP_NAME":"眉县恒信纸业有限责任公司","AREA_CODE":"610326","PX":107.652222222,"PY":33.9833333333,"ADRESS":"眉县火车站道南6号","FR":"刘恒通","TEL":"","CUSC_CODE":"9161032622152166XU","PARENT_ARE":"610300","IS_ZDY":0,"IS_XKZ":1,"IS_ONLINE":0,"CORP_TYPE":1}},
{"type":"Feature","geometry":{"type":"Point","coordinates":[107.28778888900007,34.34421944400003]},"properties":{"OBJECTID":263,"CORP_ID":611,"CORP_CODE":"77992314-X","CORP_NAME":"蒙牛乳业（宝鸡）有限公司","AREA_CODE":"610305","PX":107.287788889,"PY":34.3442194444,"ADRESS":"陕西省宝鸡市高新十三路蒙牛工业园","FR":"赵永旺","TEL":"","CUSC_CODE":"9161030077992314X5","PARENT_ARE":"610300","IS_ZDY":1,"IS_XKZ":1,"IS_ONLINE":1,"CORP_TYPE":3}},
{"type":"Feature","geometry":{"type":"Point","coordinates":[110.18222222200006,37.731111111000075]},"properties":{"OBJECTID":264,"CORP_ID":612,"CORP_CODE":"69112215-3","CORP_NAME":"米脂县银河水务有限责任公司","AREA_CODE":"610827","PX":110.182222222,"PY":37.7311111111,"ADRESS":"艾家坪村","FR":"李保东","TEL":"13379392345","CUSC_CODE":"91610827691122153Y","PARENT_ARE":"610800","IS_ZDY":1,"IS_XKZ":1,"IS_ONLINE":1,"CORP_TYPE":3}},
{"type":"Feature","geometry":{"type":"Point","coordinates":[106.81851944400006,33.136369444000024]},"properties":{"OBJECTID":265,"CORP_ID":613,"CORP_CODE":"-","CORP_NAME":"勉县定军山水泥有限公司","AREA_CODE":"610725","PX":106.818519444,"PY":33.1363694444,"ADRESS":"陕西省汉中市勉县金泉镇墓上村","FR":"付彦忠","TEL":"","CUSC_CODE":"9161072577000450XC","PARENT_ARE":"610700","IS_ZDY":0,"IS_XKZ":1,"IS_ONLINE":0,"CORP_TYPE":1}},
{"type":"Feature","geometry":{"type":"Point","coordinates":[106.95461700000004,33.09666800000008]},"properties":{"OBJECTID":267,"CORP_ID":615,"CORP_CODE":"-","CORP_NAME":"南郑县中梁建材有限公司","AREA_CODE":"610721","PX":106.954617,"PY":33.096668,"ADRESS":"陕西省汉中市南郑县梁山镇南寨村","FR":"鲍玉丹","TEL":"13892689868","CUSC_CODE":"91610721222614593U","PARENT_ARE":"610700","IS_ZDY":0,"IS_XKZ":1,"IS_ONLINE":0,"CORP_TYPE":1}},
{"type":"Feature","geometry":{"type":"Point","coordinates":[108.29388055600003,33.30838055600003]},"properties":{"OBJECTID":269,"CORP_ID":617,"CORP_CODE":"-","CORP_NAME":"宁陕县污水处理厂","AREA_CODE":"610923","PX":108.293880556,"PY":33.3083805556,"ADRESS":"陕西省安康市宁陕县城关镇朱家咀村","FR":"苏蕾","TEL":"","CUSC_CODE":"91610923MA70NLBR3K","PARENT_ARE":"610900","IS_ZDY":1,"IS_XKZ":1,"IS_ONLINE":1,"CORP_TYPE":5}},
{"type":"Feature","geometry":{"type":"Point","coordinates":[109.59861111100008,35.146388889000036]},"properties":{"OBJECTID":271,"CORP_ID":621,"CORP_CODE":"70996767-3","CORP_NAME":"陕西陕煤蒲白矿业有限公司热电公司","AREA_CODE":"610527","PX":109.598611111,"PY":35.1463888889,"ADRESS":"白水县城关镇","FR":"刘文军","TEL":"","CUSC_CODE":"91610500MA6Y6W2U75","PARENT_ARE":"610500","IS_ZDY":1,"IS_XKZ":1,"IS_ONLINE":1,"CORP_TYPE":3}},
{"type":"Feature","geometry":{"type":"Point","coordinates":[109.68666666700005,34.855000000000075]},"properties":{"OBJECTID":273,"CORP_ID":626,"CORP_CODE":"-","CORP_NAME":"蒲城县残联龙源造纸厂","AREA_CODE":"610526","PX":109.686666667,"PY":34.855,"ADRESS":"蒲城县龙阳镇","FR":"张松民","TEL":"13619130886","CUSC_CODE":"91610526222397285R","PARENT_ARE":"610500","IS_ZDY":0,"IS_XKZ":1,"IS_ONLINE":0,"CORP_TYPE":1}},
{"type":"Feature","geometry":{"type":"Point","coordinates":[109.85653888900003,35.024569444000065]},"properties":{"OBJECTID":274,"CORP_ID":633,"CORP_CODE":"-","CORP_NAME":"蒲城县永丰利亚造纸有限责任公司","AREA_CODE":"610526","PX":109.856538889,"PY":35.0245694444,"ADRESS":"陕西省渭南市蒲城县永丰镇大浴河北段","FR":"马升坤","TEL":"13892320668","CUSC_CODE":"91610526X237113820","PARENT_ARE":"610500","IS_ZDY":1,"IS_XKZ":1,"IS_ONLINE":1,"CORP_TYPE":3}},
{"type":"Feature","geometry":{"type":"Point","coordinates":[109.86070000000007,35.00496111100006]},"properties":{"OBJECTID":275,"CORP_ID":635,"CORP_CODE":"-","CORP_NAME":"蒲城永峰水泥有限责任公司","AREA_CODE":"610526","PX":109.8607,"PY":35.0049611111,"ADRESS":"陕西省渭南市蒲城县永丰镇街北","FR":"王刚利","TEL":"","CUSC_CODE":"91610526X2371089XR","PARENT_ARE":"610500","IS_ZDY":0,"IS_XKZ":1,"IS_ONLINE":0,"CORP_TYPE":1}},
{"type":"Feature","geometry":{"type":"Point","coordinates":[108.84474300000005,34.30510200000003]},"properties":{"OBJECTID":276,"CORP_ID":637,"CORP_CODE":"-","CORP_NAME":"中车西安车辆有限公司","AREA_CODE":"619902","PX":108.844743,"PY":34.305102,"ADRESS":"建章路","FR":"张向东","TEL":"","CUSC_CODE":"916101006631640309","PARENT_ARE":"619900","IS_ZDY":1,"IS_XKZ":1,"IS_ONLINE":1,"CORP_TYPE":3}},
{"type":"Feature","geometry":{"type":"Point","coordinates":[108.67053300000003,34.11294700000008]},"properties":{"OBJECTID":277,"CORP_ID":638,"CORP_CODE":"72287756-8","CORP_NAME":"西安国维淀粉有限责任公司","AREA_CODE":"610125","PX":108.670533,"PY":34.112947,"ADRESS":"西安经济技术开发区沣京工业园","FR":"石宜霖","TEL":"","CUSC_CODE":"916101257228775685","PARENT_ARE":"610100","IS_ZDY":1,"IS_XKZ":1,"IS_ONLINE":1,"CORP_TYPE":3}},
{"type":"Feature","geometry":{"type":"Point","coordinates":[108.63561100000004,34.05095700000004]},"properties":{"OBJECTID":279,"CORP_ID":643,"CORP_CODE":"-","CORP_NAME":"西安惠大化学工业有限公司","AREA_CODE":"610125","PX":108.635611,"PY":34.050957,"ADRESS":"陕西省西安市户县余下镇","FR":"魏合田","TEL":"","CUSC_CODE":"91610000623909093M","PARENT_ARE":"610100","IS_ZDY":0,"IS_XKZ":1,"IS_ONLINE":0,"CORP_TYPE":3}},
{"type":"Feature","geometry":{"type":"Point","coordinates":[109.00488888900009,34.47055000000006]},"properties":{"OBJECTID":280,"CORP_ID":646,"CORP_CODE":"-","CORP_NAME":"西安经发新能源有限责任公司","AREA_CODE":"610162","PX":109.004888889,"PY":34.47055,"ADRESS":"西安经济技术开发区泾渭产业园内","FR":"焦海涛","TEL":"","CUSC_CODE":"91610132757819261P","PARENT_ARE":"610100","IS_ZDY":0,"IS_XKZ":1,"IS_ONLINE":1,"CORP_TYPE":3}},
{"type":"Feature","geometry":{"type":"Point","coordinates":[109.46694444400003,34.067222222000055]},"properties":{"OBJECTID":281,"CORP_ID":647,"CORP_CODE":"77594667-8","CORP_NAME":"西安蓝田尧柏水泥有限公司","AREA_CODE":"610122","PX":109.466944444,"PY":34.0672222222,"ADRESS":"西坡村","FR":"党锋斌","TEL":"029-82960002","CUSC_CODE":"91610122775946678H","PARENT_ARE":"610100","IS_ZDY":1,"IS_XKZ":1,"IS_ONLINE":1,"CORP_TYPE":1}},
{"type":"Feature","geometry":{"type":"Point","coordinates":[108.64621944400005,34.13288055600003]},"properties":{"OBJECTID":282,"CORP_ID":651,"CORP_CODE":"-","CORP_NAME":"西安利君制药有限责任公司","AREA_CODE":"610125","PX":108.646219444,"PY":34.1328805556,"ADRESS":"陕西省西安市鄠邑区沣京工业园沣五路","FR":"陈西功","TEL":"","CUSC_CODE":"91610132710172659C","PARENT_ARE":"610100","IS_ZDY":0,"IS_XKZ":1,"IS_ONLINE":0,"CORP_TYPE":3}},
{"type":"Feature","geometry":{"type":"Point","coordinates":[108.86856700000004,34.25157000000007]},"properties":{"OBJECTID":283,"CORP_ID":652,"CORP_CODE":"-","CORP_NAME":"西安南风日化有限责任公司","AREA_CODE":"610113","PX":108.868567,"PY":34.25157,"ADRESS":"西安市雁塔区丈八北路7号","FR":"李广智","TEL":"88733001","CUSC_CODE":"9161011329446466XR","PARENT_ARE":"610100","IS_ZDY":0,"IS_XKZ":1,"IS_ONLINE":1,"CORP_TYPE":3}},
{"type":"Feature","geometry":{"type":"Point","coordinates":[108.20533055600004,34.203500000000076]},"properties":{"OBJECTID":285,"CORP_ID":657,"CORP_CODE":"","CORP_NAME":"西安楼台水泥制造有限公司","AREA_CODE":"610124","PX":108.205330556,"PY":34.2035,"ADRESS":"陕西省西安市周至县渭河桥南01号","FR":"郭福","TEL":"","CUSC_CODE":"91610124710149459R","PARENT_ARE":"610100","IS_ZDY":0,"IS_XKZ":1,"IS_ONLINE":0,"CORP_TYPE":1}},
{"type":"Feature","geometry":{"type":"Point","coordinates":[108.97101111100005,34.15951944400007]},"properties":{"OBJECTID":286,"CORP_ID":658,"CORP_CODE":"-","CORP_NAME":"西安热电供热有限公司","AREA_CODE":"610164","PX":108.971011111,"PY":34.1595194444,"ADRESS":"陕西省西安市国家民用航天产业基地神舟四路469号","FR":"王卫","TEL":"","CUSC_CODE":"916100007799481954","PARENT_ARE":"610100","IS_ZDY":0,"IS_XKZ":1,"IS_ONLINE":1,"CORP_TYPE":3}},
{"type":"Feature","geometry":{"type":"Point","coordinates":[108.85745100000008,34.26491600000003]},"properties":{"OBJECTID":287,"CORP_ID":659,"CORP_CODE":"74281218-X","CORP_NAME":"西安热电有限责任公司","AREA_CODE":"619902","PX":108.857451,"PY":34.264916,"ADRESS":"西安市西郊红光路西段2号","FR":"王煜行","TEL":"84263883-2205","CUSC_CODE":"9161010074281218XU","PARENT_ARE":"619900","IS_ZDY":1,"IS_XKZ":1,"IS_ONLINE":1,"CORP_TYPE":3}},
{"type":"Feature","geometry":{"type":"Point","coordinates":[109.29881111100008,34.38528888900004]},"properties":{"OBJECTID":288,"CORP_ID":661,"CORP_CODE":"-","CORP_NAME":"西安陕鼓动力股份有限公司(代王生产区)","AREA_CODE":"610115","PX":109.298811111,"PY":34.3852888889,"ADRESS":"陕西省西安市临潼区代王街办陕鼓路18号","FR":"李宏安","TEL":"81871371","CUSC_CODE":"91610131628001738N","PARENT_ARE":"610100","IS_ZDY":0,"IS_XKZ":1,"IS_ONLINE":0,"CORP_TYPE":3}},
{"type":"Feature","geometry":{"type":"Point","coordinates":[108.92741111100008,34.383861111000044]},"properties":{"OBJECTID":289,"CORP_ID":665,"CORP_CODE":"75020440-8","CORP_NAME":"西安市城北供热有限责任公司","AREA_CODE":"610162","PX":108.927411111,"PY":34.3838611111,"ADRESS":"陕西省西安市经开区明光路","FR":"尹涛","TEL":"","CUSC_CODE":"91610132750204408U","PARENT_ARE":"610100","IS_ZDY":1,"IS_XKZ":1,"IS_ONLINE":1,"CORP_TYPE":1}},
{"type":"Feature","geometry":{"type":"Point","coordinates":[109.19833333300005,34.396388889000036]},"properties":{"OBJECTID":292,"CORP_ID":678,"CORP_CODE":"58740816-X","CORP_NAME":"西安市临潼区陕鼓水务有限公司","AREA_CODE":"610115","PX":109.198333333,"PY":34.3963888889,"ADRESS":"","FR":"施小将","TEL":"","CUSC_CODE":"","PARENT_ARE":"610100","IS_ZDY":1,"IS_XKZ":1,"IS_ONLINE":0,"CORP_TYPE":3}},
{"type":"Feature","geometry":{"type":"Point","coordinates":[108.96843888900008,34.26793888900005]},"properties":{"OBJECTID":293,"CORP_ID":681,"CORP_CODE":"-","CORP_NAME":"西安市热力总公司城区供热公司朝阳门站","AREA_CODE":"610103","PX":108.968438889,"PY":34.2679388889,"ADRESS":"西安市碑林区环城东路75号","FR":"唐涤","TEL":"","CUSC_CODE":"916101332944677999","PARENT_ARE":"610100","IS_ZDY":0,"IS_XKZ":1,"IS_ONLINE":0,"CORP_TYPE":3}},
{"type":"Feature","geometry":{"type":"Point","coordinates":[109.25811944400004,34.058100000000024]},"properties":{"OBJECTID":297,"CORP_ID":695,"CORP_CODE":"-","CORP_NAME":"西安顺宇水泥有限责任公司","AREA_CODE":"610122","PX":109.258119444,"PY":34.0581,"ADRESS":"陕西省西安市蓝田县小寨镇工业园区","FR":"王小东","TEL":"","CUSC_CODE":"916101227299500272","PARENT_ARE":"610100","IS_ZDY":0,"IS_XKZ":1,"IS_ONLINE":0,"CORP_TYPE":1}},
{"type":"Feature","geometry":{"type":"Point","coordinates":[108.87936111100004,34.271680556000035]},"properties":{"OBJECTID":299,"CORP_ID":698,"CORP_CODE":"-","CORP_NAME":"西安西电高压电瓷有限责任公司","AREA_CODE":"610104","PX":108.879361111,"PY":34.2716805556,"ADRESS":"西安市莲湖区大庆路579号","FR":"赵文潮","TEL":"","CUSC_CODE":"9161010422060325X9","PARENT_ARE":"610100","IS_ZDY":0,"IS_XKZ":1,"IS_ONLINE":0,"CORP_TYPE":3}},
{"type":"Feature","geometry":{"type":"Point","coordinates":[108.88361944400003,34.272500000000036]},"properties":{"OBJECTID":300,"CORP_ID":702,"CORP_CODE":"-","CORP_NAME":"西安西电开关电气有限公司","AREA_CODE":"","PX":108.883619444,"PY":34.2725,"ADRESS":"陕西省西安市莲湖区大庆路509号","FR":"朱琦琦","TEL":"","CUSC_CODE":"916101317262848586","PARENT_ARE":"610100","IS_ZDY":1,"IS_XKZ":1,"IS_ONLINE":0,"CORP_TYPE":3}},
{"type":"Feature","geometry":{"type":"Point","coordinates":[108.87861111100005,34.27770000000004]},"properties":{"OBJECTID":302,"CORP_ID":703,"CORP_CODE":"79165933-7","CORP_NAME":"西安西联供热有限公司","AREA_CODE":"610104","PX":108.878611111,"PY":34.2777,"ADRESS":"西安市莲湖区丰收路31号","FR":"吕彬","TEL":"","CUSC_CODE":"916101137916593379","PARENT_ARE":"610100","IS_ZDY":1,"IS_XKZ":1,"IS_ONLINE":1,"CORP_TYPE":1}},
{"type":"Feature","geometry":{"type":"Point","coordinates":[108.75906111100005,34.43911944400003]},"properties":{"OBJECTID":303,"CORP_ID":705,"CORP_CODE":"-","CORP_NAME":"西安咸阳国际机场股份有限公司","AREA_CODE":"619901","PX":108.759061111,"PY":34.4391194444,"ADRESS":"陕西省西咸新区空港新城西安咸阳国际机场","FR":"陈波","TEL":"88798683","CUSC_CODE":"91610000675135878W","PARENT_ARE":"619900","IS_ZDY":0,"IS_XKZ":1,"IS_ONLINE":1,"CORP_TYPE":3}},
{"type":"Feature","geometry":{"type":"Point","coordinates":[109.01308055600003,34.238880556000026]},"properties":{"OBJECTID":304,"CORP_ID":707,"CORP_CODE":"79748411-X","CORP_NAME":"西安雁东供热有限公司","AREA_CODE":"610113","PX":109.013080556,"PY":34.2388805556,"ADRESS":"西安市雁塔区康宁路6号","FR":"孙传亚","TEL":"13700295268","CUSC_CODE":"9161011379748411X3","PARENT_ARE":"610100","IS_ZDY":1,"IS_XKZ":1,"IS_ONLINE":1,"CORP_TYPE":3}},
{"type":"Feature","geometry":{"type":"Point","coordinates":[109.25635000000005,34.41676944400007]},"properties":{"OBJECTID":305,"CORP_ID":709,"CORP_CODE":"-","CORP_NAME":"西安伊利泰普克饮品有限公司","AREA_CODE":"610115","PX":109.25635,"PY":34.4167694444,"ADRESS":"陕西省西安市临潼区新丰工贸小区","FR":"陈年良","TEL":"","CUSC_CODE":"91610000623101115T","PARENT_ARE":"610100","IS_ZDY":0,"IS_XKZ":1,"IS_ONLINE":1,"CORP_TYPE":3}},
{"type":"Feature","geometry":{"type":"Point","coordinates":[109.22225000000009,34.386530556000025]},"properties":{"OBJECTID":306,"CORP_ID":711,"CORP_CODE":"-","CORP_NAME":"西安银桥乳业（集团）有限公司临潼分公司","AREA_CODE":"610115","PX":109.22225,"PY":34.3865305556,"ADRESS":"西安市临潼经济开发区银桥大道99号","FR":"刘华国","TEL":"","CUSC_CODE":"91610115750223174A","PARENT_ARE":"610100","IS_ZDY":0,"IS_XKZ":1,"IS_ONLINE":1,"CORP_TYPE":3}},
{"type":"Feature","geometry":{"type":"Point","coordinates":[108.93063888900008,34.23438888900006]},"properties":{"OBJECTID":307,"CORP_ID":719,"CORP_CODE":"-","CORP_NAME":"西安城区供热有限公司","AREA_CODE":"610103","PX":108.930638889,"PY":34.2343888889,"ADRESS":"西安市碑林区含光北路23号","FR":"崔舒","TEL":"","CUSC_CODE":"91610103750241460J","PARENT_ARE":"610100","IS_ZDY":0,"IS_XKZ":1,"IS_ONLINE":1,"CORP_TYPE":3}},
{"type":"Feature","geometry":{"type":"Point","coordinates":[108.15023888900004,34.67086111100008]},"properties":{"OBJECTID":309,"CORP_ID":726,"CORP_CODE":"77000425-1","CORP_NAME":"阿果安娜果汁（咸阳）有限公司","AREA_CODE":"610426","PX":108.150238889,"PY":34.6708611111,"ADRESS":"永寿县西兰大街南段","FR":"Franz Ennser","TEL":"","CUSC_CODE":"916104007700042513","PARENT_ARE":"610400","IS_ZDY":1,"IS_XKZ":1,"IS_ONLINE":1,"CORP_TYPE":3}},
{"type":"Feature","geometry":{"type":"Point","coordinates":[108.66228600000005,34.32684300000005]},"properties":{"OBJECTID":311,"CORP_ID":728,"CORP_CODE":"-","CORP_NAME":"咸阳彩虹热电有限公司","AREA_CODE":"610405","PX":108.662286,"PY":34.326843,"ADRESS":"陕西省咸阳市秦都区","FR":"李温夫","TEL":"","CUSC_CODE":"91610400786997577J","PARENT_ARE":"610400","IS_ZDY":1,"IS_XKZ":1,"IS_ONLINE":0,"CORP_TYPE":3}},
{"type":"Feature","geometry":{"type":"Point","coordinates":[110.22681111100007,36.83333055600008]},"properties":{"OBJECTID":318,"CORP_ID":772,"CORP_CODE":"-","CORP_NAME":"延川县污水处理厂","AREA_CODE":"610622","PX":110.226811111,"PY":36.8333305556,"ADRESS":"郭家河村","FR":"刘保卫","TEL":"","CUSC_CODE":"11610622MB2927264U","PARENT_ARE":"610600","IS_ZDY":1,"IS_XKZ":1,"IS_ONLINE":1,"CORP_TYPE":5}},
{"type":"Feature","geometry":{"type":"Point","coordinates":[108.10663100000005,34.24402500000008]},"properties":{"OBJECTID":320,"CORP_ID":776,"CORP_CODE":"-","CORP_NAME":"杨凌华宇水质净化有限公司","AREA_CODE":"618101","PX":108.106631,"PY":34.244025,"ADRESS":"滨河东路3号","FR":"王达娣","TEL":"","CUSC_CODE":"91610403737997773Q","PARENT_ARE":"618100","IS_ZDY":1,"IS_XKZ":1,"IS_ONLINE":1,"CORP_TYPE":3}},
{"type":"Feature","geometry":{"type":"Point","coordinates":[107.45335000000006,33.19026944400008]},"properties":{"OBJECTID":322,"CORP_ID":781,"CORP_CODE":"-","CORP_NAME":"洋县玉虎化工有限责任公司","AREA_CODE":"610723","PX":107.45335,"PY":33.1902694444,"ADRESS":"陕西省汉中市洋县谢村工业园区","FR":"赵玉铭","TEL":"","CUSC_CODE":"916107236233450999","PARENT_ARE":"610700","IS_ZDY":1,"IS_XKZ":1,"IS_ONLINE":1,"CORP_TYPE":3}},
{"type":"Feature","geometry":{"type":"Point","coordinates":[109.01993888900006,34.94741944400005]},"properties":{"OBJECTID":323,"CORP_ID":783,"CORP_CODE":"73267552-1H","CORP_NAME":"铜川市耀州区轩辕水泥厂","AREA_CODE":"610204","PX":109.019938889,"PY":34.9474194444,"ADRESS":"陕西省铜川市耀州区孙原镇孙原村","FR":"胡向阳","TEL":"","CUSC_CODE":"91610204732675521H","PARENT_ARE":"610200","IS_ZDY":0,"IS_XKZ":1,"IS_ONLINE":0,"CORP_TYPE":1}},
{"type":"Feature","geometry":{"type":"Point","coordinates":[109.43396944400007,35.74136111100006]},"properties":{"OBJECTID":324,"CORP_ID":785,"CORP_CODE":"-735380227C","CORP_NAME":"伊天果汁（陕西）有限公司","AREA_CODE":"610629","PX":109.433969444,"PY":35.7413611111,"ADRESS":"陕西省延安市洛川县风栖镇","FR":"王军会","TEL":"","CUSC_CODE":"91610600735380227C","PARENT_ARE":"610600","IS_ZDY":0,"IS_XKZ":1,"IS_ONLINE":0,"CORP_TYPE":3}},
{"type":"Feature","geometry":{"type":"Point","coordinates":[108.59613055600005,34.307361111000034]},"properties":{"OBJECTID":325,"CORP_ID":787,"CORP_CODE":"-","CORP_NAME":"益海嘉里（兴平）食品工业有限公司","AREA_CODE":"610481","PX":108.596130556,"PY":34.3073611111,"ADRESS":"陕西省咸阳市兴平市食品工业园","FR":"米杰","TEL":"","CUSC_CODE":"9161040066797089XE","PARENT_ARE":"610400","IS_ZDY":1,"IS_XKZ":1,"IS_ONLINE":1,"CORP_TYPE":3}},
{"type":"Feature","geometry":{"type":"Point","coordinates":[109.55303055600007,34.497330556000065]},"properties":{"OBJECTID":327,"CORP_ID":789,"CORP_CODE":"68796635-","CORP_NAME":"优艺国际环保科技（北京）有限公司渭南分公司","AREA_CODE":"610502","PX":109.553030556,"PY":34.4973305556,"ADRESS":"向阳办孟家村","FR":"刘玉杰","TEL":"","CUSC_CODE":"91610500687966353A","PARENT_ARE":"610500","IS_ZDY":0,"IS_XKZ":1,"IS_ONLINE":0,"CORP_TYPE":1}},
{"type":"Feature","geometry":{"type":"Point","coordinates":[109.86250000000007,38.40028055600004]},