{"type":"FeatureCollection", "features": [
{"type":"Feature","geometry":{"type":"Point","coordinates":[107.16652199999999,34.418113000000005]},"properties":{"OBJECTID":1922,"ID":0,"STATIONCOD":"DA14S610304_2001A","STATIONNAM":"金陵河宝鸡水质自动监测站","LONGITUDE":"107.166522","LATITUDE":"34.418113","STATIONATT":"省控","STATIONTYP":"","TABLEID":2,"REMARK":"","AREACODE":"610300","COUNTYCODE":"610304","AREANAME":"宝鸡市","COUNTYNAME":"陈仓区","UPDATETIME":"1899-11-30T00:00:00.000Z","RIVERNAME":"金陵河","ADDRESS":"入渭河口"}},
{"type":"Feature","geometry":{"type":"Point","coordinates":[108.805048,34.37289099999998]},"properties":{"OBJECTID":1923,"ID":0,"STATIONCOD":"DA09S610404_2001A","STATIONNAM":"渭河咸阳干流水质自动监测站","LONGITUDE":"108.805048","LATITUDE":"34.372891","STATIONATT":"省控","STATIONTYP":"","TABLEID":2,"REMARK":"","AREACODE":"610400","COUNTYCODE":"610404","AREANAME":"咸阳市","COUNTYNAME":"渭城区","UPDATETIME":"1899-11-30T00:00:00.000Z","RIVERNAME":"渭河","ADDRESS":"市界（咸阳市-西安市）"}},
{"type":"Feature","geometry":{"type":"Point","coordinates":[108.76468899999998,34.33771200000001]},"properties":{"OBJECTID":1924,"ID":0,"STATIONCOD":"DA14S610402_2001A","STATIONNAM":"咸阳沣河水质自动监测站","LONGITUDE":"108.764689","LATITUDE":"34.337712","STATIONATT":"省控","STATIONTYP":"","TABLEID":2,"REMARK":"","AREACODE":"610400","COUNTYCODE":"610402","AREANAME":"咸阳市","COUNTYNAME":"秦都区","UPDATETIME":"1899-11-30T00:00:00.000Z","RIVERNAME":"沣河","ADDRESS":"入渭河口"}},
{"type":"Feature","geometry":{"type":"Point","coordinates":[107.98035800000002,35.22738199999998]},"properties":{"OBJECTID":1925,"ID":0,"STATIONCOD":"DA05S610482_2001A","STATIONNAM":"泾河长武水质自动监测站","LONGITUDE":"107.980358","LATITUDE":"35.227382","STATIONATT":"省控","STATIONTYP":"","TABLEID":2,"REMARK":"","AREACODE":"610400","COUNTYCODE":"610427","AREANAME":"咸阳市","COUNTYNAME":"彬县","UPDATETIME":"1899-11-30T00:00:00.000Z","RIVERNAME":"泾河","ADDRESS":"省界（甘肃省-陕西省）"}},
{"type":"Feature","geometry":{"type":"Point","coordinates":[109.54060500000003,34.514252]},"properties":{"OBJECTID":1926,"ID":0,"STATIONCOD":"DA14S610502_2001A","STATIONNAM":"渭南沋河水质自动监测站","LONGITUDE":"109.540605","LATITUDE":"34.514252","STATIONATT":"省控","STATIONTYP":"","TABLEID":2,"REMARK":"","AREACODE":"610500","COUNTYCODE":"610502","AREANAME":"渭南市","COUNTYNAME":"临渭区","UPDATETIME":"1899-11-30T00:00:00.000Z","RIVERNAME":"沋河","ADDRESS":"入渭河口"}},
{"type":"Feature","geometry":{"type":"Point","coordinates":[108.06234799999999,34.239712]},"properties":{"OBJECTID":1927,"ID":0,"STATIONCOD":"DA07S610403_2001A","STATIONNAM":"渭河杨凌干流水质自动监测站","LONGITUDE":"108.062348","LATITUDE":"34.239712","STATIONATT":"省控","STATIONTYP":"","TABLEID":2,"REMARK":"","AREACODE":"616902","COUNTYCODE":"616902","AREANAME":"杨凌区","COUNTYNAME":"杨陵区","UPDATETIME":"1899-11-30T00:00:00.000Z","RIVERNAME":"渭河","ADDRESS":"市界（宝鸡市-咸阳市）"}},
{"type":"Feature","geometry":{"type":"Point","coordinates":[108.125294,34.303067999999996]},"properties":{"OBJECTID":1928,"ID":0,"STATIONCOD":"DA08S610403_2002A","STATIONNAM":"杨凌小韦河水质自动监测站","LONGITUDE":"108.125294","LATITUDE":"34.303068","STATIONATT":"省控","STATIONTYP":"","TABLEID":2,"REMARK":"","AREACODE":"616902","COUNTYCODE":"616902","AREANAME":"杨凌区","COUNTYNAME":"杨陵区","UPDATETIME":"1899-11-30T00:00:00.000Z","RIVERNAME":"小韦河","ADDRESS":"市界（杨凌区-咸阳市）"}},
{"type":"Feature","geometry":{"type":"Point","coordinates":[110.24295699999999,36.83982800000001]},"properties":{"OBJECTID":1929,"ID":0,"STATIONCOD":"DA14S610622_2001A","STATIONNAM":"秀延河水质自动监测站","LONGITUDE":"110.242957","LATITUDE":"36.839828","STATIONATT":"省控","STATIONTYP":"","TABLEID":2,"REMARK":"","AREACODE":"610600","COUNTYCODE":"610622","AREANAME":"延安市","COUNTYNAME":"延川县","UPDATETIME":"1899-11-30T00:00:00.000Z","RIVERNAME":"秀延河","ADDRESS":"入黄河口"}},
{"type":"Feature","geometry":{"type":"Point","coordinates":[110.41156000000001,38.400014]},"properties":{"OBJECTID":1930,"ID":0,"STATIONCOD":"DA14S610881_2001A","STATIONNAM":"秃尾河水质自动监测站","LONGITUDE":"110.41156","LATITUDE":"38.400014","STATIONATT":"省控","STATIONTYP":"","TABLEID":2,"REMARK":"","AREACODE":"610821","COUNTYCODE":"610821","AREANAME":"神木市","COUNTYNAME":"神木市","UPDATETIME":"1899-11-30T00:00:00.000Z","RIVERNAME":"秃尾河","ADDRESS":"入黄河口"}},
{"type":"Feature","geometry":{"type":"Point","coordinates":[110.15054600000002,32.81389899999999]},"properties":{"OBJECTID":1931,"ID":0,"STATIONCOD":"FA06S610929_2001A","STATIONNAM":"汉江白河城关水质自动监测站","LONGITUDE":"110.150546","LATITUDE":"32.813899","STATIONATT":"省控","STATIONTYP":"","TABLEID":2,"REMARK":"","AREACODE":"610900","COUNTYCODE":"610929","AREANAME":"安康市","COUNTYNAME":"白河县","UPDATETIME":"1899-11-30T00:00:00.000Z","RIVERNAME":"汉江","ADDRESS":"省界（陕西省-湖北省）"}},
{"type":"Feature","geometry":{"type":"Point","coordinates":[108.06797999999998,33.036899000000005]},"properties":{"OBJECTID":1932,"ID":0,"STATIONCOD":"FA09S610724_2001A","STATIONNAM":"汉江西乡茶镇水自动质监测站","LONGITUDE":"108.06798","LATITUDE":"33.036899","STATIONATT":"省控","STATIONTYP":"","TABLEID":2,"REMARK":"","AREACODE":"610700","COUNTYCODE":"610724","AREANAME":"汉中市","COUNTYNAME":"西乡县","UPDATETIME":"1899-11-30T00:00:00.000Z","RIVERNAME":"汉江","ADDRESS":"市界（安康市-汉中市）"}},
{"type":"Feature","geometry":{"type":"Point","coordinates":[105.90599200000003,32.90081900000001]},"properties":{"OBJECTID":1933,"ID":0,"STATIONCOD":"FK06S610726_2001A","STATIONNAM":"嘉陵江宁强燕子砭水质自动监测站","LONGITUDE":"105.905992","LATITUDE":"32.900819","STATIONATT":"省控","STATIONTYP":"","TABLEID":2,"REMARK":"","AREACODE":"610700","COUNTYCODE":"610726","AREANAME":"汉中市","COUNTYNAME":"宁强县","UPDATETIME":"1899-11-30T00:00:00.000Z","RIVERNAME":"嘉陵江","ADDRESS":"省界（陕西省-四川省）"}},
{"type":"Feature","geometry":{"type":"Point","coordinates":[107.76659999999998,33.27210000000002]},"properties":{"OBJECTID":1934,"ID":0,"STATIONCOD":"FA14S610723_2002A","STATIONNAM":"汉中市洋县酉水河水质自动监测站","LONGITUDE":"107.7666","LATITUDE":"33.2721","STATIONATT":"省控","STATIONTYP":"","TABLEID":2,"REMARK":"","AREACODE":"610700","COUNTYCODE":"610723","AREANAME":"汉中市","COUNTYNAME":"洋县","UPDATETIME":"1899-11-30T00:00:00.000Z","RIVERNAME":"汉江","ADDRESS":"入汉江口"}},
{"type":"Feature","geometry":{"type":"Point","coordinates":[106.4545,33.21629999999999]},"properties":{"OBJECTID":1935,"ID":0,"STATIONCOD":"FA14S610727_2001A","STATIONNAM":"汉中市略阳县黑（沮）河水质自动监测站","LONGITUDE":"106.4545","LATITUDE":"33.2163","STATIONATT":"省控","STATIONTYP":"","TABLEID":2,"REMARK":"","AREACODE":"610700","COUNTYCODE":"610727","AREANAME":"汉中市","COUNTYNAME":"略阳县","UPDATETIME":"1899-11-30T00:00:00.000Z","RIVERNAME":"沮水","ADDRESS":"入沮水口"}},
{"type":"Feature","geometry":{"type":"Point","coordinates":[110.28030000000001,34.12479999999999]},"properties":{"OBJECTID":1936,"ID":0,"STATIONCOD":"DA06S611021_2001A","STATIONNAM":"商洛市洛南县官桥水质自动监测站","LONGITUDE":"110.2803","LATITUDE":"34.1248","STATIONATT":"省控","STATIONTYP":"","TABLEID":2,"REMARK":"","AREACODE":"611000","COUNTYCODE":"611021","AREANAME":"商洛市","COUNTYNAME":"洛南县","UPDATETIME":"1899-11-30T00:00:00.000Z","RIVERNAME":"洛河","ADDRESS":"省界（陕西省-河南省）"}},
{"type":"Feature","geometry":{"type":"Point","coordinates":[109.5804,32.163599999999974]},"properties":{"OBJECTID":1937,"ID":0,"STATIONCOD":"FA06S610927_2001A","STATIONNAM":"安康市镇坪县界牌沟水质自动监测站","LONGITUDE":"109.5804","LATITUDE":"32.1636","STATIONATT":"省控","STATIONTYP":"","TABLEID":2,"REMARK":"","AREACODE":"610900","COUNTYCODE":"610927","AREANAME":"安康市","COUNTYNAME":"镇平县","UPDATETIME":"1899-11-30T00:00:00.000Z","RIVERNAME":"南江河","ADDRESS":"省界（陕西省-重庆市）"}},
{"type":"Feature","geometry":{"type":"Point","coordinates":[109.0675,33.18579999999997]},"properties":{"OBJECTID":1938,"ID":0,"STATIONCOD":"FA08S610928_2001A","STATIONNAM":"安康市旬阳县仁河口镇水质自动监测站","LONGITUDE":"109.0675","LATITUDE":"33.1858","STATIONATT":"省控","STATIONTYP":"","TABLEID":2,"REMARK":"","AREACODE":"610900","COUNTYCODE":"610928","AREANAME":"安康市","COUNTYNAME":"旬阳县","UPDATETIME":"1899-11-30T00:00:00.000Z","RIVERNAME":"旬河","ADDRESS":"市界（商洛市-安康市）"}},
{"type":"Feature","geometry":{"type":"Point","coordinates":[107.25940000000003,33.23009999999999]},"properties":{"OBJECTID":1939,"ID":0,"STATIONCOD":"FA14S610722_2001A","STATIONNAM":"汉中市城固县桔园水质自动监测站","LONGITUDE":"107.2594","LATITUDE":"33.2301","STATIONATT":"省控","STATIONTYP":"","TABLEID":2,"REMARK":"","AREACODE":"610700","COUNTYCODE":"610722","AREANAME":"汉中市","COUNTYNAME":"城固县","UPDATETIME":"1899-11-30T00:00:00.000Z","RIVERNAME":"湑水","ADDRESS":"入汉江口"}},
{"type":"Feature","geometry":{"type":"Point","coordinates":[107.97300000000001,33.44470000000001]},"properties":{"OBJECTID":1940,"ID":0,"STATIONCOD":"FA14S610730_2001A","STATIONNAM":"汉中市佛坪县银厂沟水质自动监测站","LONGITUDE":"107.973","LATITUDE":"33.4447","STATIONATT":"省控","STATIONTYP":"","TABLEID":2,"REMARK":"","AREACODE":"610700","COUNTYCODE":"610730","AREANAME":"汉中市","COUNTYNAME":"佛坪县","UPDATETIME":"1899-11-30T00:00:00.000Z","RIVERNAME":"椒溪河","ADDRESS":"入子午河口"}},
{"type":"Feature","geometry":{"type":"Point","coordinates":[106.99779999999998,33.55739999999997]},"properties":{"OBJECTID":1941,"ID":0,"STATIONCOD":"FA14S610729_2001A","STATIONNAM":"汉中市留坝县青羊铺水质自动监测站","LONGITUDE":"106.9978","LATITUDE":"33.5574","STATIONATT":"省控","STATIONTYP":"","TABLEID":2,"REMARK":"","AREACODE":"610700","COUNTYCODE":"610729","AREANAME":"汉中市","COUNTYNAME":"留坝县","UPDATETIME":"1899-11-30T00:00:00.000Z","RIVERNAME":"北栈河","ADDRESS":"入褒河口"}},
{"type":"Feature","geometry":{"type":"Point","coordinates":[109.29329999999999,32.93950000000001]},"properties":{"OBJECTID":1942,"ID":0,"STATIONCOD":"FA16S610928_2002A","STATIONNAM":"安康市旬阳县水源地水质自动监测站","LONGITUDE":"109.2933","LATITUDE":"32.9395","STATIONATT":"省控","STATIONTYP":"","TABLEID":2,"REMARK":"","AREACODE":"610900","COUNTYCODE":"610928","AREANAME":"安康市","COUNTYNAME":"旬阳县","UPDATETIME":"1899-11-30T00:00:00.000Z","RIVERNAME":"冷水河","ADDRESS":"水库口"}},
{"type":"Feature","geometry":{"type":"Point","coordinates":[108.28899999999999,32.97969999999998]},"properties":{"OBJECTID":1943,"ID":0,"STATIONCOD":"FA14S610922_2001A","STATIONNAM":"安康市石泉县池河水质自动监测站","LONGITUDE":"108.289","LATITUDE":"32.9797","STATIONATT":"省控","STATIONTYP":"","TABLEID":2,"REMARK":"","AREACODE":"610900","COUNTYCODE":"610922","AREANAME":"安康市","COUNTYNAME":"石泉县","UPDATETIME":"1899-11-30T00:00:00.000Z","RIVERNAME":"池河","ADDRESS":"入汉江口"}},
{"type":"Feature","geometry":{"type":"Point","coordinates":[110.92156799999998,33.32046100000002]},"properties":{"OBJECTID":1944,"ID":0,"STATIONCOD":"FA06S611023_2001A","STATIONNAM":"丹江商南湘河水质自动监测站","LONGITUDE":"110.921568","LATITUDE":"33.320461","STATIONATT":"省控","STATIONTYP":"","TABLEID":2,"REMARK":"","AREACODE":"611000","COUNTYCODE":"611023","AREANAME":"商洛市","COUNTYNAME":"商南县","UPDATETIME":"1899-11-30T00:00:00.000Z","RIVERNAME":"丹江","ADDRESS":"省界（陕西省-河南省）"}},
{"type":"Feature","geometry":{"type":"Point","coordinates":[110.25916699999999,37.00972200000001]},"properties":{"OBJECTID":1945,"ID":0,"STATIONCOD":"DA14S610826_2001A","STATIONNAM":"绥德县大理河汇入无定河","LONGITUDE":"110.259167","LATITUDE":"37.009722","STATIONATT":"市控","STATIONTYP":"","TABLEID":2,"REMARK":"","AREACODE":"610800","COUNTYCODE":"610826","AREANAME":"榆林市","COUNTYNAME":"绥德县","UPDATETIME":"1899-11-30T00:00:00.000Z","RIVERNAME":"大理河","ADDRESS":"入无定河口"}},
{"type":"Feature","geometry":{"type":"Point","coordinates":[109.13389999999998,33.16919999999999]},"properties":{"OBJECTID":1946,"ID":0,"STATIONCOD":"FA09S611025_2001A","STATIONNAM":"乾佑河青铜关前湾","LONGITUDE":"109.1339","LATITUDE":"33.1692","STATIONATT":"市控","STATIONTYP":"","TABLEID":2,"REMARK":"","AREACODE":"611000","COUNTYCODE":"611025","AREANAME":"商洛市","COUNTYNAME":"镇安县","UPDATETIME":"1899-11-30T00:00:00.000Z","RIVERNAME":"乾佑河","ADDRESS":"市界（商洛-安康）"}},
{"type":"Feature","geometry":{"type":"Point","coordinates":[109.156295,34.64707199999998]},"properties":{"OBJECTID":1947,"ID":0,"STATIONCOD":"DA08S610114_2001A","STATIONNAM":"清河阎南路水质自动监测站","LONGITUDE":"109.156295","LATITUDE":"34.647072","STATIONATT":"市控","STATIONTYP":"","TABLEID":2,"REMARK":"","AREACODE":"610100","COUNTYCODE":"610114","AREANAME":"西安市","COUNTYNAME":"阎良区","UPDATETIME":"1899-11-30T00:00:00.000Z","RIVERNAME":"清河","ADDRESS":"市界（三原-阎良）"}},
{"type":"Feature","geometry":{"type":"Point","coordinates":[107.99370199999998,34.32235200000002]},"properties":{"OBJECTID":1948,"ID":0,"STATIONCOD":"DA09S610324_2001A","STATIONNAM":"小韦河杏林水质自动监测站","LONGITUDE":"107.993702","LATITUDE":"34.322352","STATIONATT":"省控","STATIONTYP":"","TABLEID":2,"REMARK":"","AREACODE":"610300","COUNTYCODE":"610324","AREANAME":"宝鸡市","COUNTYNAME":"扶风县","UPDATETIME":"1899-11-30T00:00:00.000Z","RIVERNAME":"小韦河","ADDRESS":"市界（宝鸡市-杨凌区）"}},
{"type":"Feature","geometry":{"type":"Point","coordinates":[110.34500000000003,33.63080000000002]},"properties":{"OBJECTID":1815,"ID":0,"STATIONCOD":"A611000_0002","STATIONNAM":"丹凤下","LONGITUDE":"110.34500000","LATITUDE":"33.63080000","STATIONATT":"国控","STATIONTYP":"","TABLEID":1,"REMARK":"","AREACODE":"611000","COUNTYCODE":"611022","AREANAME":"商洛市","COUNTYNAME":"丹凤县","UPDATETIME":"1899-11-30T00:00:00.000Z","RIVERNAME":"丹江","ADDRESS":"丹凤县龙驹寨街道办事处保仓村刘河源组"}},
{"type":"Feature","geometry":{"type":"Point","coordinates":[110.54599999999999,34.074299999999994]},"properties":{"OBJECTID":1816,"ID":0,"STATIONCOD":"A611000_2003","STATIONNAM":"灵口","LONGITUDE":"110.54600000","LATITUDE":"34.07430000","STATIONATT":"国控","STATIONTYP":"","TABLEID":1,"REMARK":"","AREACODE":"611000","COUNTYCODE":"611021","AREANAME":"商洛市","COUNTYNAME":"洛南县","UPDATETIME":"1899-11-30T00:00:00.000Z","RIVERNAME":"洛河","ADDRESS":"陕西省洛南县灵口镇"}},
{"type":"Feature","geometry":{"type":"Point","coordinates":[106.0831,33.18380000000002]},"properties":{"OBJECTID":1817,"ID":0,"STATIONCOD":"A610700_0001","STATIONNAM":"鲁光坪","LONGITUDE":"106.08310000","LATITUDE":"33.18380000","STATIONATT":"国控","STATIONTYP":"","TABLEID":1,"REMARK":"","AREACODE":"610700","COUNTYCODE":"610727","AREANAME":"汉中市","COUNTYNAME":"略阳县","UPDATETIME":"1899-11-30T00:00:00.000Z","RIVERNAME":"嘉陵江","ADDRESS":"略阳县兴州街道办灵岩寺村鲁光坪"}},
{"type":"Feature","geometry":{"type":"Point","coordinates":[106.25889999999998,33.043799999999976]},"properties":{"OBJECTID":1818,"ID":0,"STATIONCOD":"A610700_0003","STATIONNAM":"烈金坝","LONGITUDE":"106.25890000","LATITUDE":"33.04380000","STATIONATT":"国控","STATIONTYP":"","TABLEID":1,"REMARK":"","AREACODE":"610700","COUNTYCODE":"610726","AREANAME":"汉中市","COUNTYNAME":"宁强县","UPDATETIME":"1899-11-30T00:00:00.000Z","RIVERNAME":"汉江","ADDRESS":"汉中市宁强县大安镇烈金坝村（村委会旁）"}},
{"type":"Feature","geometry":{"type":"Point","coordinates":[106.92659689999999,33.125322600000004]},"properties":{"OBJECTID":1819,"ID":0,"STATIONCOD":"A610700_2004","STATIONNAM":"梁西渡","LONGITUDE":"106.9265969","LATITUDE":"33.1253226","STATIONATT":"国控","STATIONTYP":"","TABLEID":1,"REMARK":"","AREACODE":"610700","COUNTYCODE":"610725","AREANAME":"汉中市","COUNTYNAME":"勉县","UPDATETIME":"1899-11-30T00:00:00.000Z","RIVERNAME":"汉江","ADDRESS":"陕西省汉中市南郑区梁山镇梁山村7组"}},
{"type":"Feature","geometry":{"type":"Point","coordinates":[109.26659999999998,34.45738]},"properties":{"OBJECTID":1820,"ID":0,"STATIONCOD":"A610100_0003","STATIONNAM":"新丰镇大桥","LONGITUDE":"109.26660000","LATITUDE":"34.45738000","STATIONATT":"国控","STATIONTYP":"","TABLEID":1,"REMARK":"","AREACODE":"610100","COUNTYCODE":"610115","AREANAME":"西安市","COUNTYNAME":"临潼区","UPDATETIME":"1899-11-30T00:00:00.000Z","RIVERNAME":"渭河","ADDRESS":"西安市临潼区新丰镇大桥下游渭河南岸22"}},
{"type":"Feature","geometry":{"type":"Point","coordinates":[107.21839999999997,33.1164]},"properties":{"OBJECTID":1821,"ID":0,"STATIONCOD":"A610700_2003","STATIONNAM":"南柳渡","LONGITUDE":"107.21840000","LATITUDE":"33.11640000","STATIONATT":"国控","STATIONTYP":"","TABLEID":1,"REMARK":"","AREACODE":"610700","COUNTYCODE":"610722","AREANAME":"汉中市","COUNTYNAME":"城固县","UPDATETIME":"1899-11-30T00:00:00.000Z","RIVERNAME":"汉江","ADDRESS":"城固县沙河营镇梁家庵村"}},
{"type":"Feature","geometry":{"type":"Point","coordinates":[107.83139999999997,33.193100000000015]},"properties":{"OBJECTID":1822,"ID":0,"STATIONCOD":"A610700_0002","STATIONNAM":"黄金峡","LONGITUDE":"107.83140000","LATITUDE":"33.19310000","STATIONATT":"国控","STATIONTYP":"","TABLEID":1,"REMARK":"","AREACODE":"610700","COUNTYCODE":"610723","AREANAME":"汉中市","COUNTYNAME":"洋县","UPDATETIME":"1899-11-30T00:00:00.000Z","RIVERNAME":"汉江","ADDRESS":"洋县黄金峡镇"}},
{"type":"Feature","geometry":{"type":"Point","coordinates":[106.9459,33.263300000000015]},"properties":{"OBJECTID":1823,"ID":0,"STATIONCOD":"A610700_0004","STATIONNAM":"石门水库","LONGITUDE":"106.94590000","LATITUDE":"33.26330000","STATIONATT":"国控","STATIONTYP":"","TABLEID":1,"REMARK":"","AREACODE":"610700","COUNTYCODE":"610702","AREANAME":"汉中市","COUNTYNAME":"汉台区","UPDATETIME":"1899-11-30T00:00:00.000Z","RIVERNAME":"石门水库（褒河）","ADDRESS":""}},
{"type":"Feature","geometry":{"type":"Point","coordinates":[110.98649999999998,38.959299999999985]},"properties":{"OBJECTID":1824,"ID":0,"STATIONCOD":"A610800_0004","STATIONNAM":"碛塄","LONGITUDE":"110.98650000","LATITUDE":"38.95930000","STATIONATT":"国控","STATIONTYP":"","TABLEID":1,"REMARK":"","AREACODE":"610800","COUNTYCODE":"610822","AREANAME":"榆林市","COUNTYNAME":"府谷县","UPDATETIME":"1899-11-30T00:00:00.000Z","RIVERNAME":"黄河","ADDRESS":""}},
{"type":"Feature","geometry":{"type":"Point","coordinates":[110.74869999999999,38.43369999999999]},"properties":{"OBJECTID":1825,"ID":0,"STATIONCOD":"A610800_0002","STATIONNAM":"温家川(神木窟野河)","LONGITUDE":"110.74870000","LATITUDE":"38.43370000","STATIONATT":"国控","STATIONTYP":"","TABLEID":1,"REMARK":"","AREACODE":"610800","COUNTYCODE":"610881","AREANAME":"榆林市","COUNTYNAME":"神木市","UPDATETIME":"1899-11-30T00:00:00.000Z","RIVERNAME":"窟野河","ADDRESS":"陕西省榆林市神木市高家塔村"}},
{"type":"Feature","geometry":{"type":"Point","coordinates":[110.4769,38.24349999999998]},"properties":{"OBJECTID":1826,"ID":0,"STATIONCOD":"A610800_2005","STATIONNAM":"高家川","LONGITUDE":"110.47690000","LATITUDE":"38.24350000","STATIONATT":"国控","STATIONTYP":"","TABLEID":1,"REMARK":"","AREACODE":"610800","COUNTYCODE":"610828","AREANAME":"榆林市","COUNTYNAME":"佳县","UPDATETIME":"1899-11-30T00:00:00.000Z","RIVERNAME":"秃尾河","ADDRESS":"陕西省榆林市神木市高家川村"}},
{"type":"Feature","geometry":{"type":"Point","coordinates":[110.44228800000002,37.26290899999998]},"properties":{"OBJECTID":1827,"ID":0,"STATIONCOD":"26108000047B1","STATIONNAM":"清涧无定河","LONGITUDE":"110.44228800","LATITUDE":"37.26290900","STATIONATT":"国控","STATIONTYP":"","TABLEID":1,"REMARK":"","AREACODE":"610800","COUNTYCODE":"610830","AREANAME":"榆林市","COUNTYNAME":"清涧县","UPDATETIME":"1899-11-30T00:00:00.000Z","RIVERNAME":"无定河","ADDRESS":"榆林市清涧县白家川村"}},
{"type":"Feature","geometry":{"type":"Point","coordinates":[108.221,33.036099999999976]},"properties":{"OBJECTID":1828,"ID":0,"STATIONCOD":"A610900_0001","STATIONNAM":"小钢桥","LONGITUDE":"108.22100000","LATITUDE":"33.03610000","STATIONATT":"国控","STATIONTYP":"","TABLEID":1,"REMARK":"","AREACODE":"610900","COUNTYCODE":"610922","AREANAME":"安康市","COUNTYNAME":"石泉县","UPDATETIME":"1899-11-30T00:00:00.000Z","RIVERNAME":"汉江","ADDRESS":"陕西省石泉县城关镇称沟湾码头"}},
{"type":"Feature","geometry":{"type":"Point","coordinates":[109.07420000000002,32.715599999999995]},"properties":{"OBJECTID":1829,"ID":0,"STATIONCOD":"A610900_0002","STATIONNAM":"老君关","LONGITUDE":"109.07420000","LATITUDE":"32.71560000","STATIONATT":"国控","STATIONTYP":"","TABLEID":1,"REMARK":"","AREACODE":"610900","COUNTYCODE":"610902","AREANAME":"安康市","COUNTYNAME":"汉滨区","UPDATETIME":"1899-11-30T00:00:00.000Z","RIVERNAME":"汉江","ADDRESS":"陕西省安康市汉滨区关庙镇金星村1组"}},
{"type":"Feature","geometry":{"type":"Point","coordinates":[108.836094,32.604052000000024]},"properties":{"OBJECTID":1830,"ID":0,"STATIONCOD":"A610900_2002","STATIONNAM":"瀛湖坝前","LONGITUDE":"108.83609400","LATITUDE":"32.60405200","STATIONATT":"国控","STATIONTYP":"","TABLEID":1,"REMARK":"","AREACODE":"610900","COUNTYCODE":"610902","AREANAME":"安康市","COUNTYNAME":"汉滨区","UPDATETIME":"1899-11-30T00:00:00.000Z","RIVERNAME":"汉江","ADDRESS":"陕西省安康市汉滨区瀛湖镇清泉村十四组"}},
{"type":"Feature","geometry":{"type":"Point","coordinates":[109.9153,33.898199999999974]},"properties":{"OBJECTID":1831,"ID":0,"STATIONCOD":"A611000_0001","STATIONNAM":"构峪口","LONGITUDE":"109.91530000","LATITUDE":"33.89820000","STATIONATT":"国控","STATIONTYP":"","TABLEID":1,"REMARK":"","AREACODE":"611000","COUNTYCODE":"611002","AREANAME":"商洛市","COUNTYNAME":"商州区","UPDATETIME":"1899-11-30T00:00:00.000Z","RIVERNAME":"丹江","ADDRESS":"商洛市二龙山水库电站院内"}},
{"type":"Feature","geometry":{"type":"Point","coordinates":[109.32850000000002,34.551800000000014]},"properties":{"OBJECTID":1832,"ID":0,"STATIONCOD":"A610500_0001","STATIONNAM":"沙王渡","LONGITUDE":"109.32850000","LATITUDE":"34.55180000","STATIONATT":"国控","STATIONTYP":"","TABLEID":1,"REMARK":"","AREACODE":"610100","COUNTYCODE":"610115","AREANAME":"西安市","COUNTYNAME":"临潼区","UPDATETIME":"1899-11-30T00:00:00.000Z","RIVERNAME":"渭河","ADDRESS":"陕西省渭南市交口镇东楼村"}},
{"type":"Feature","geometry":{"type":"Point","coordinates":[110.22829999999999,34.61329999999998]},"properties":{"OBJECTID":1833,"ID":0,"STATIONCOD":"A610500_0002","STATIONNAM":"潼关吊桥","LONGITUDE":"110.22830000","LATITUDE":"34.61330000","STATIONATT":"国控","STATIONTYP":"","TABLEID":1,"REMARK":"","AREACODE":"610500","COUNTYCODE":"610522","AREANAME":"渭南市","COUNTYNAME":"潼关县","UPDATETIME":"1899-11-30T00:00:00.000Z","RIVERNAME":"渭河","ADDRESS":"61052200000001"}},
{"type":"Feature","geometry":{"type":"Point","coordinates":[110.3888,36.44540000000001]},"properties":{"OBJECTID":1834,"ID":0,"STATIONCOD":"A610600_2005","STATIONNAM":"阎家滩","LONGITUDE":"110.38880000","LATITUDE":"36.44540000","STATIONATT":"国控","STATIONTYP":"","TABLEID":1,"REMARK":"","AREACODE":"610600","COUNTYCODE":"610621","AREANAME":"延安市","COUNTYNAME":"延长县","UPDATETIME":"1899-11-30T00:00:00.000Z","RIVERNAME":"延河","ADDRESS":""}},
{"type":"Feature","geometry":{"type":"Point","coordinates":[110.37450000000001,39.320100000000025]},"properties":{"OBJECTID":1835,"ID":0,"STATIONCOD":"A610800_2004","STATIONNAM":"贾家畔","LONGITUDE":"110.37450000","LATITUDE":"39.32010000","STATIONATT":"国控","STATIONTYP":"","TABLEID":1,"REMARK":"","AREACODE":"610800","COUNTYCODE":"610881","AREANAME":"榆林市","COUNTYNAME":"神木市","UPDATETIME":"1899-11-30T00:00:00.000Z","RIVERNAME":"牸牛川","ADDRESS":""}},
{"type":"Feature","geometry":{"type":"Point","coordinates":[109.5163,34.504999999999995]},"properties":{"OBJECTID":1836,"ID":0,"STATIONCOD":"A610500_2005","STATIONNAM":"张家庄","LONGITUDE":"109.51630000","LATITUDE":"34.50500000","STATIONATT":"国控","STATIONTYP":"","TABLEID":1,"REMARK":"","AREACODE":"610500","COUNTYCODE":"610502","AREANAME":"渭南市","COUNTYNAME":"临渭区","UPDATETIME":"1899-11-30T00:00:00.000Z","RIVERNAME":"沋河","ADDRESS":"渭南市临渭区胜利大街尤河西岸交汇处"}},
{"type":"Feature","geometry":{"type":"Point","coordinates":[109.58609999999999,36.651099999999985]},"properties":{"OBJECTID":1837,"ID":0,"STATIONCOD":"A610600_2006","STATIONNAM":"朱家沟","LONGITUDE":"109.58610000","LATITUDE":"36.65110000","STATIONATT":"国控","STATIONTYP":"","TABLEID":1,"REMARK":"","AREACODE":"610600","COUNTYCODE":"610602","AREANAME":"延安市","COUNTYNAME":"宝塔区","UPDATETIME":"1899-11-30T00:00:00.000Z","RIVERNAME":"延河","ADDRESS":""}},
{"type":"Feature","geometry":{"type":"Point","coordinates":[109.82440000000003,38.00080000000003]},"properties":{"OBJECTID":1838,"ID":0,"STATIONCOD":"A610800_2006","STATIONNAM":"鱼河","LONGITUDE":"109.82440000","LATITUDE":"38.00080000","STATIONATT":"国控","STATIONTYP":"","TABLEID":1,"REMARK":"","AREACODE":"610800","COUNTYCODE":"610802","AREANAME":"榆林市","COUNTYNAME":"榆阳区","UPDATETIME":"1899-11-30T00:00:00.000Z","RIVERNAME":"榆溪河","ADDRESS":""}},
{"type":"Feature","geometry":{"type":"Point","coordinates":[110.16820000000001,34.634000000000015]},"properties":{"OBJECTID":1839,"ID":0,"STATIONCOD":"A610500_0003","STATIONNAM":"王谦村","LONGITUDE":"110.16820000","LATITUDE":"34.63400000","STATIONATT":"国控","STATIONTYP":"","TABLEID":1,"REMARK":"","AREACODE":"610500","COUNTYCODE":"610582","AREANAME":"渭南市","COUNTYNAME":"华阴市","UPDATETIME":"1899-11-30T00:00:00.000Z","RIVERNAME":"洛河","ADDRESS":"陕西省华阴市新建村"}},
{"type":"Feature","geometry":{"type":"Point","coordinates":[110.27640000000002,36.79109999999997]},"properties":{"OBJECTID":1840,"ID":0,"STATIONCOD":"A610600_2003","STATIONNAM":"王家河","LONGITUDE":"110.27640000","LATITUDE":"36.79110000","STATIONATT":"国控","STATIONTYP":"","TABLEID":1,"REMARK":"","AREACODE":"610600","COUNTYCODE":"610622","AREANAME":"延安市","COUNTYNAME":"延川县","UPDATETIME":"1899-11-30T00:00:00.000Z","RIVERNAME":"清涧河","ADDRESS":""}},
{"type":"Feature","geometry":{"type":"Point","coordinates":[107.45350000000002,36.069500000000005]},"properties":{"OBJECTID":1841,"ID":0,"STATIONCOD":"A610600_2004","STATIONNAM":"昝家山","LONGITUDE":"107.45350000","LATITUDE":"36.06950000","STATIONATT":"国控","STATIONTYP":"","TABLEID":1,"REMARK":"","AREACODE":"610600","COUNTYCODE":"610630","AREANAME":"延安市","COUNTYNAME":"宜川县","UPDATETIME":"1899-11-30T00:00:00.000Z","RIVERNAME":"仕望河","ADDRESS":""}},
{"type":"Feature","geometry":{"type":"Point","coordinates":[109.44559299999997,35.523900000000026]},"properties":{"OBJECTID":1842,"ID":0,"STATIONCOD":"A610600_2002","STATIONNAM":"田庄镇南城村","LONGITUDE":"109.44559300","LATITUDE":"35.52390000","STATIONATT":"国控","STATIONTYP":"","TABLEID":1,"REMARK":"","AREACODE":"610600","COUNTYCODE":"610629","AREANAME":"延安市","COUNTYNAME":"洛川县","UPDATETIME":"1899-11-30T00:00:00.000Z","RIVERNAME":"北洛河","ADDRESS":"陕西省延安市黄陵县田庄镇南城村村"}},
{"type":"Feature","geometry":{"type":"Point","coordinates":[109.00990000000002,34.384799999999984]},"properties":{"OBJECTID":1846,"ID":0,"STATIONCOD":"A610100_2007","STATIONNAM":"三郎村","LONGITUDE":"109.00990000","LATITUDE":"34.38480000","STATIONATT":"国控","STATIONTYP":"","TABLEID":1,"REMARK":"","AREACODE":"610100","COUNTYCODE":"610112","AREANAME":"西安市","COUNTYNAME":"未央区","UPDATETIME":"1899-11-30T00:00:00.000Z","RIVERNAME":"灞河","ADDRESS":"西安市国际港务区灞河东路秦汉大道灞河桥北侧20米"}},
{"type":"Feature","geometry":{"type":"Point","coordinates":[108.99059999999997,34.891399999999976]},"properties":{"OBJECTID":1847,"ID":0,"STATIONCOD":"A610200_2005","STATIONNAM":"岔口","LONGITUDE":"108.99060000","LATITUDE":"34.89140000","STATIONATT":"国控","STATIONTYP":"","TABLEID":1,"REMARK":"","AREACODE":"","COUNTYCODE":"","AREANAME":"铜川市","COUNTYNAME":"","UPDATETIME":"1899-11-30T00:00:00.000Z","RIVERNAME":"石川河","ADDRESS":"陕西省铜川市耀州区岔口墩"}},
{"type":"Feature","geometry":{"type":"Point","coordinates":[106.84039999999999,34.19499999999999]},"properties":{"OBJECTID":1848,"ID":0,"STATIONCOD":"A610300_0001","STATIONNAM":"黄牛铺","LONGITUDE":"106.84040000","LATITUDE":"34.19500000","STATIONATT":"国控","STATIONTYP":"","TABLEID":1,"REMARK":"","AREACODE":"610300","COUNTYCODE":"610330","AREANAME":"宝鸡市","COUNTYNAME":"凤县","UPDATETIME":"1899-11-30T00:00:00.000Z","RIVERNAME":"嘉陵江","ADDRESS":"凤县黄牛铺镇黄牛铺村加油站东"}},
{"type":"Feature","geometry":{"type":"Point","coordinates":[106.46780000000001,33.90219999999999]},"properties":{"OBJECTID":1849,"ID":0,"STATIONCOD":"A610300_2005","STATIONNAM":"灶火庵","LONGITUDE":"106.46780000","LATITUDE":"33.90220000","STATIONATT":"国控","STATIONTYP":"","TABLEID":1,"REMARK":"","AREACODE":"610300","COUNTYCODE":"610330","AREANAME":"宝鸡市","COUNTYNAME":"凤县","UPDATETIME":"1899-11-30T00:00:00.000Z","RIVERNAME":"嘉陵江","ADDRESS":"凤县双石铺镇草店村"}},
{"type":"Feature","geometry":{"type":"Point","coordinates":[107.74489999999997,34.301499999999976]},"properties":{"OBJECTID":1850,"ID":0,"STATIONCOD":"A610300_0002","STATIONNAM":"魏家堡","LONGITUDE":"107.74490000","LATITUDE":"34.30150000","STATIONATT":"国控","STATIONTYP":"","TABLEID":1,"REMARK":"","AREACODE":"610300","COUNTYCODE":"610326","AREANAME":"宝鸡市","COUNTYNAME":"眉县","UPDATETIME":"1899-11-30T00:00:00.000Z","RIVERNAME":"渭河","ADDRESS":"眉县魏家堡"}},
{"type":"Feature","geometry":{"type":"Point","coordinates":[107.24329999999998,34.35840000000002]},"properties":{"OBJECTID":1851,"ID":0,"STATIONCOD":"A610300_2004","STATIONNAM":"卧龙寺桥","LONGITUDE":"107.24330000","LATITUDE":"34.35840000","STATIONATT":"国控","STATIONTYP":"","TABLEID":1,"REMARK":"","AREACODE":"610300","COUNTYCODE":"610303","AREANAME":"宝鸡市","COUNTYNAME":"金台区","UPDATETIME":"1899-11-30T00:00:00.000Z","RIVERNAME":"渭河","ADDRESS":"宝鸡市区渭河北岸蟠龙桥下河堤平台处"}},
{"type":"Feature","geometry":{"type":"Point","coordinates":[107.1189,34.640600000000006]},"properties":{"OBJECTID":1852,"ID":0,"STATIONCOD":"A610300_2003","STATIONNAM":"千河公路桥","LONGITUDE":"107.11890000","LATITUDE":"34.64060000","STATIONATT":"国控","STATIONTYP":"","TABLEID":1,"REMARK":"","AREACODE":"610300","COUNTYCODE":"610328","AREANAME":"宝鸡市","COUNTYNAME":"千阳县","UPDATETIME":"1899-11-30T00:00:00.000Z","RIVERNAME":"千河","ADDRESS":"千阳县千河公路桥西"}},
{"type":"Feature","geometry":{"type":"Point","coordinates":[108.5122,34.23349999999999]},"properties":{"OBJECTID":1853,"ID":0,"STATIONCOD":"A610400_0001","STATIONNAM":"兴平","LONGITUDE":"108.51220000","LATITUDE":"34.23350000","STATIONATT":"国控","STATIONTYP":"","TABLEID":1,"REMARK":"","AREACODE":"610400","COUNTYCODE":"610481","AREANAME":"咸阳市","COUNTYNAME":"兴平市","UPDATETIME":"1899-11-30T00:00:00.000Z","RIVERNAME":"渭河","ADDRESS":"兴平市阜寨镇张耳村河堤路南渭河北岸"}},
{"type":"Feature","geometry":{"type":"Point","coordinates":[108.73410000000001,34.33080000000001]},"properties":{"OBJECTID":1854,"ID":0,"STATIONCOD":"A610100_0002","STATIONNAM":"咸阳铁桥","LONGITUDE":"108.73410000","LATITUDE":"34.33080000","STATIONATT":"国控","STATIONTYP":"","TABLEID":1,"REMARK":"","AREACODE":"610400","COUNTYCODE":"610402","AREANAME":"咸阳市","COUNTYNAME":"秦都区","UPDATETIME":"1899-11-30T00:00:00.000Z","RIVERNAME":"渭河","ADDRESS":"咸阳渭城桥南"}},
{"type":"Feature","geometry":{"type":"Point","coordinates":[107.93799999999999,35.10160000000002]},"properties":{"OBJECTID":1855,"ID":0,"STATIONCOD":"A610400_2006","STATIONNAM":"黑河张家桥","LONGITUDE":"107.93800000","LATITUDE":"35.10160000","STATIONATT":"国控","STATIONTYP":"","TABLEID":1,"REMARK":"","AREACODE":"610400","COUNTYCODE":"610428","AREANAME":"咸阳市","COUNTYNAME":"长武县","UPDATETIME":"1899-11-30T00:00:00.000Z","RIVERNAME":"黑河","ADDRESS":"长武县亭口镇政府办公楼原文化站"}},
{"type":"Feature","geometry":{"type":"Point","coordinates":[108.80919999999998,34.49950000000001]},"properties":{"OBJECTID":1856,"ID":0,"STATIONCOD":"A610400_0002","STATIONNAM":"泾河桥","LONGITUDE":"108.80920000","LATITUDE":"34.49950000","STATIONATT":"国控","STATIONTYP":"","TABLEID":1,"REMARK":"","AREACODE":"610400","COUNTYCODE":"610423","AREANAME":"咸阳市","COUNTYNAME":"泾阳县","UPDATETIME":"1899-11-30T00:00:00.000Z","RIVERNAME":"泾河","ADDRESS":""}},
{"type":"Feature","geometry":{"type":"Point","coordinates":[110.27518099999998,36.499032]},"properties":{"OBJECTID":1857,"ID":0,"STATIONCOD":"DA14S610621_2001A","STATIONNAM":"延河水质自动监测站","LONGITUDE":"110.275181","LATITUDE":"36.499032","STATIONATT":"省控","STATIONTYP":"","TABLEID":2,"REMARK":"","AREACODE":"610600","COUNTYCODE":"610621","AREANAME":"延安市","COUNTYNAME":"延长县","UPDATETIME":"1899-11-30T00:00:00.000Z","RIVERNAME":"延河","ADDRESS":"入黄河口"}},
{"type":"Feature","geometry":{"type":"Point","coordinates":[109.08825100000001,35.174396]},"properties":{"OBJECTID":1858,"ID":0,"STATIONCOD":"DA00S610203_2001A","STATIONNAM":"柳湾河","LONGITUDE":"109.088251","LATITUDE":"35.174396","STATIONATT":"市控","STATIONTYP":"","TABLEID":2,"REMARK":"","AREACODE":"610200","COUNTYCODE":"610203","AREANAME":"铜川市","COUNTYNAME":"印台区","UPDATETIME":"1899-11-30T00:00:00.000Z","RIVERNAME":"河流","ADDRESS":"水源地"}},
{"type":"Feature","geometry":{"type":"Point","coordinates":[108.41859929999998,34.199930300000005]},"properties":{"OBJECTID":1859,"ID":0,"STATIONCOD":"DA12S610124_2002A","STATIONNAM":"黑河入渭水质自动监测站","LONGITUDE":"108.4185993","LATITUDE":"34.1999303","STATIONATT":"市控","STATIONTYP":"","TABLEID":2,"REMARK":"","AREACODE":"610100","COUNTYCODE":"610124","AREANAME":"西安市","COUNTYNAME":"周至县","UPDATETIME":"1899-11-30T00:00:00.000Z","RIVERNAME":"黑河","ADDRESS":"入河口（黑河入渭河）"}},
{"type":"Feature","geometry":{"type":"Point","coordinates":[108.20819419999998,34.05348980000002]},"properties":{"OBJECTID":1860,"ID":0,"STATIONCOD":"DA00S610124_2003A","STATIONNAM":"黑河艾蒿坪水质自动监测站","LONGITUDE":"108.2081942","LATITUDE":"34.0534898","STATIONATT":"市控","STATIONTYP":"","TABLEID":2,"REMARK":"","AREACODE":"610100","COUNTYCODE":"610124","AREANAME":"西安市","COUNTYNAME":"周至县","UPDATETIME":"1899-11-30T00:00:00.000Z","RIVERNAME":"黑河","ADDRESS":"饮用水源地"}},
{"type":"Feature","geometry":{"type":"Point","coordinates":[108.6067051,34.24160330000001]},"properties":{"OBJECTID":1861,"ID":0,"STATIONCOD":"DA14S610118_2002A","STATIONNAM":"涝河保西村水质自动监测站","LONGITUDE":"108.6067051","LATITUDE":"34.2416033","STATIONATT":"市控","STATIONTYP":"","TABLEID":2,"REMARK":"","AREACODE":"610100","COUNTYCODE":"610125","AREANAME":"西安市","COUNTYNAME":"鄠邑区","UPDATETIME":"1899-11-30T00:00:00.000Z","RIVERNAME":"涝河","ADDRESS":"入河口（涝河入渭河）"}},
{"type":"Feature","geometry":{"type":"Point","coordinates":[108.66144800000001,34.168576599999994]},"properties":{"OBJECTID":1862,"ID":0,"STATIONCOD":"DA09S610118_2003A","STATIONNAM":"新河文涝路水质自动监测站","LONGITUDE":"108.661448","LATITUDE":"34.1685766","STATIONATT":"市控","STATIONTYP":"","TABLEID":2,"REMARK":"","AREACODE":"610100","COUNTYCODE":"610125","AREANAME":"西安市","COUNTYNAME":"鄠邑区","UPDATETIME":"1899-11-30T00:00:00.000Z","RIVERNAME":"新河","ADDRESS":"市界（西安-西咸）"}},
{"type":"Feature","geometry":{"type":"Point","coordinates":[108.66724970000001,34.269062700000006]},"properties":{"OBJECTID":1863,"ID":0,"STATIONCOD":"DA14S610402_2002A","STATIONNAM":"新河通勤东路水质自动监测站","LONGITUDE":"108.6672497","LATITUDE":"34.2690627","STATIONATT":"市控","STATIONTYP":"","TABLEID":2,"REMARK":"","AREACODE":"610100","COUNTYCODE":"619900","AREANAME":"西安市","COUNTYNAME":"西咸新区","UPDATETIME":"1899-11-30T00:00:00.000Z","RIVERNAME":"新河","ADDRESS":"入河口（新河入渭河）"}},
{"type":"Feature","geometry":{"type":"Point","coordinates":[108.743605,34.053927999999985]},"properties":{"OBJECTID":1864,"ID":0,"STATIONCOD":"DA12S610118_2004A","STATIONNAM":"太平峪河郭南村水质自动监测站","LONGITUDE":"108.743605","LATITUDE":"34.053928","STATIONATT":"市控","STATIONTYP":"","TABLEID":2,"REMARK":"","AREACODE":"610100","COUNTYCODE":"610125","AREANAME":"西安市","COUNTYNAME":"鄠邑区","UPDATETIME":"1899-11-30T00:00:00.000Z","RIVERNAME":"太平峪河","ADDRESS":"县界（鄠邑-高新）"}},
{"type":"Feature","geometry":{"type":"Point","coordinates":[108.76830000000001,34.10430000000002]},"properties":{"OBJECTID":1865,"ID":0,"STATIONCOD":"DA14S610116_2002A","STATIONNAM":"潏河史鱼寨村水质自动监测站","LONGITUDE":"108.7683","LATITUDE":"34.1043","STATIONATT":"市控","STATIONTYP":"","TABLEID":2,"REMARK":"","AREACODE":"610100","COUNTYCODE":"610116","AREANAME":"西安市","COUNTYNAME":"长安区","UPDATETIME":"1899-11-30T00:00:00.000Z","RIVERNAME":"潏河","ADDRESS":"入河口（潏河入沣河）"}},
{"type":"Feature","geometry":{"type":"Point","coordinates":[108.74622620000002,34.15176107000002]},"properties":{"OBJECTID":1866,"ID":0,"STATIONCOD":"DA09S610116_2003A","STATIONNAM":"沣河梁家桥水质自动监测站","LONGITUDE":"108.7462262","LATITUDE":"34.15176107","STATIONATT":"市控","STATIONTYP":"","TABLEID":2,"REMARK":"","AREACODE":"610100","COUNTYCODE":"610116","AREANAME":"西安市","COUNTYNAME":"长安区","UPDATETIME":"1899-11-30T00:00:00.000Z","RIVERNAME":"沣河","ADDRESS":"市界（西安-西咸）"}},
{"type":"Feature","geometry":{"type":"Point","coordinates":[108.7316419,34.2216904]},"properties":{"OBJECTID":1867,"ID":0,"STATIONCOD":"DA12S610116_2004A","STATIONNAM":"沣河严家渠水质自动监测站","LONGITUDE":"108.7316419","LATITUDE":"34.2216904","STATIONATT":"市控","STATIONTYP":"","TABLEID":2,"REMARK":"","AREACODE":"610100","COUNTYCODE":"619902","AREANAME":"西安市","COUNTYNAME":"西咸新区沣东新城","UPDATETIME":"1899-11-30T00:00:00.000Z","RIVERNAME":"沣河","ADDRESS":"县界（沣东-能源金贸区）"}},
{"type":"Feature","geometry":{"type":"Point","coordinates":[108.72612600000002,34.252726800000005]},"properties":{"OBJECTID":1868,"ID":0,"STATIONCOD":"DA12S610116_2005A","STATIONNAM":"沣河西宝速桥水质自动监测站","LONGITUDE":"108.726126","LATITUDE":"34.2527268","STATIONATT":"市控","STATIONTYP":"","TABLEID":2,"REMARK":"","AREACODE":"610100","COUNTYCODE":"619906","AREANAME":"西安市","COUNTYNAME":"西咸新区能源金贸区","UPDATETIME":"1899-11-30T00:00:00.000Z","RIVERNAME":"沣河","ADDRESS":"县界（能源金贸区-沣西）"}},
{"type":"Feature","geometry":{"type":"Point","coordinates":[109.09190000000001,36.89789999999999]},"properties":{"OBJECTID":1843,"ID":0,"STATIONCOD":"A610600_0001","STATIONNAM":"水库出水口","LONGITUDE":"109.09190000","LATITUDE":"36.89790000","STATIONATT":"国控","STATIONTYP":"","TABLEID":1,"REMARK":"","AREACODE":"610600","COUNTYCODE":"610603","AREANAME":"延安市","COUNTYNAME":"安塞区","UPDATETIME":"1899-11-30T00:00:00.000Z","RIVERNAME":"王瑶水库","ADDRESS":""}},
{"type":"Feature","geometry":{"type":"Point","coordinates":[106.06139999999999,33.353999999999985]},"properties":{"OBJECTID":1844,"ID":0,"STATIONCOD":"A610700_2005","STATIONNAM":"白水江","LONGITUDE":"106.06140000","LATITUDE":"33.35400000","STATIONATT":"国控","STATIONTYP":"","TABLEID":1,"REMARK":"","AREACODE":"610700","COUNTYCODE":"610727","AREANAME":"汉中市","COUNTYNAME":"略阳县","UPDATETIME":"1899-11-30T00:00:00.000Z","RIVERNAME":"嘉陵江","ADDRESS":"略阳县白水江镇大沙坝村长峰组"}},
{"type":"Feature","geometry":{"type":"Point","coordinates":[109.04160000000002,34.32569999999998]},"properties":{"OBJECTID":1845,"ID":0,"STATIONCOD":"A610100_0004","STATIONNAM":"灞河口","LONGITUDE":"109.04160000","LATITUDE":"34.32570000","STATIONATT":"国控","STATIONTYP":"","TABLEID":1,"REMARK":"","AREACODE":"610100","COUNTYCODE":"610111","AREANAME":"西安市","COUNTYNAME":"灞桥区","UPDATETIME":"1899-11-30T00:00:00.000Z","RIVERNAME":"灞河","ADDRESS":"西安市浐灞生态区灞河东路永宁坝管理站东侧10米"}},
{"type":"Feature","geometry":{"type":"Point","coordinates":[108.74188199999998,34.299507199999994]},"properties":{"OBJECTID":1869,"ID":0,"STATIONCOD":"DA11S610402_2003A","STATIONNAM":"沣河统一路桥水质自动监测站","LONGITUDE":"108.741882","LATITUDE":"34.2995072","STATIONATT":"市控","STATIONTYP":"","TABLEID":2,"REMARK":"","AREACODE":"610100","COUNTYCODE":"619904","AREANAME":"西安市","COUNTYNAME":"西咸新区沣西新城","UPDATETIME":"1899-11-30T00:00:00.000Z","RIVERNAME":"沣河","ADDRESS":"县界（沣西-能源金贸区）"}},
{"type":"Feature","geometry":{"type":"Point","coordinates":[108.74382680000002,34.332729099999995]},"properties":{"OBJECTID":1870,"ID":0,"STATIONCOD":"DA09S610402_2004A","STATIONNAM":"沣河王家村水质自动监测站","LONGITUDE":"108.7438268","LATITUDE":"34.3327291","STATIONATT":"市控","STATIONTYP":"","TABLEID":2,"REMARK":"","AREACODE":"610100","COUNTYCODE":"619906","AREANAME":"西安市","COUNTYNAME":"西咸新区能源金贸区","UPDATETIME":"1899-11-30T00:00:00.000Z","RIVERNAME":"沣河","ADDRESS":"市界（沣河入渭河）"}},
{"type":"Feature","geometry":{"type":"Point","coordinates":[108.89510000000001,34.120799999999974]},"properties":{"OBJECTID":1871,"ID":0,"STATIONCOD":"DA12S610116_2006A","STATIONNAM":"滈河香积寺水质自动监测站","LONGITUDE":"108.8951","LATITUDE":"34.1208","STATIONATT":"市控","STATIONTYP":"","TABLEID":2,"REMARK":"","AREACODE":"610100","COUNTYCODE":"610116","AREANAME":"西安市","COUNTYNAME":"长安区","UPDATETIME":"1899-11-30T00:00:00.000Z","RIVERNAME":"滈河","ADDRESS":"县界（长安出境）"}},
{"type":"Feature","geometry":{"type":"Point","coordinates":[108.91059999999999,34.173]},"properties":{"OBJECTID":1872,"ID":0,"STATIONCOD":"DA12S610116_2007A","STATIONNAM":"皂河西部大道水质自动监测站","LONGITUDE":"108.9106","LATITUDE":"34.173","STATIONATT":"市控","STATIONTYP":"","TABLEID":2,"REMARK":"","AREACODE":"610100","COUNTYCODE":"610116","AREANAME":"西安市","COUNTYNAME":"长安区","UPDATETIME":"1899-11-30T00:00:00.000Z","RIVERNAME":"皂河","ADDRESS":"县界（长安-雁塔）"}},
{"type":"Feature","geometry":{"type":"Point","coordinates":[108.88591200000002,34.19301999999999]},"properties":{"OBJECTID":1873,"ID":0,"STATIONCOD":"DA12S610113_2001A","STATIONNAM":"皂河南三环水质自动监测站","LONGITUDE":"108.885912","LATITUDE":"34.19302","STATIONATT":"市控","STATIONTYP":"","TABLEID":2,"REMARK":"","AREACODE":"610100","COUNTYCODE":"610113","AREANAME":"西安市","COUNTYNAME":"雁塔区","UPDATETIME":"1899-11-30T00:00:00.000Z","RIVERNAME":"皂河","ADDRESS":"县界（雁塔-高新）"}},
{"type":"Feature","geometry":{"type":"Point","coordinates":[108.84859979999999,34.24021529999999]},"properties":{"OBJECTID":1874,"ID":0,"STATIONCOD":"DA12S610113_2002A","STATIONNAM":"皂河富鱼路水质自动监测站","LONGITUDE":"108.8485998","LATITUDE":"34.2402153","STATIONATT":"市控","STATIONTYP":"","TABLEID":2,"REMARK":"","AREACODE":"610100","COUNTYCODE":"610161","AREANAME":"西安市","COUNTYNAME":"高新区","UPDATETIME":"1899-11-30T00:00:00.000Z","RIVERNAME":"皂河","ADDRESS":"县界（高新-雁塔）"}},
{"type":"Feature","geometry":{"type":"Point","coordinates":[108.8435809,34.255875300000014]},"properties":{"OBJECTID":1875,"ID":0,"STATIONCOD":"DA12S610112_2002A","STATIONNAM":"皂河昆明路水质自动监测站","LONGITUDE":"108.8435809","LATITUDE":"34.2558753","STATIONATT":"市控","STATIONTYP":"","TABLEID":2,"REMARK":"","AREACODE":"610100","COUNTYCODE":"619902","AREANAME":"西安市","COUNTYNAME":"西咸新区沣东新城","UPDATETIME":"1899-11-30T00:00:00.000Z","RIVERNAME":"皂河","ADDRESS":"县界（雁塔-莲湖）"}},
{"type":"Feature","geometry":{"type":"Point","coordinates":[108.84340909999997,34.303687000000025]},"properties":{"OBJECTID":1876,"ID":0,"STATIONCOD":"DA12S610104_2001A","STATIONNAM":"皂河雁秋门水质自动监测站","LONGITUDE":"108.8434091","LATITUDE":"34.303687","STATIONATT":"市控","STATIONTYP":"","TABLEID":2,"REMARK":"","AREACODE":"610100","COUNTYCODE":"610104","AREANAME":"西安市","COUNTYNAME":"莲湖区","UPDATETIME":"1899-11-30T00:00:00.000Z","RIVERNAME":"皂河","ADDRESS":"县界（莲湖-未央）"}},
{"type":"Feature","geometry":{"type":"Point","coordinates":[108.8533392,34.38525600999998]},"properties":{"OBJECTID":1877,"ID":0,"STATIONCOD":"DA14S610112_2003A","STATIONNAM":"皂河湿地公园水质自动监测站","LONGITUDE":"108.8533392","LATITUDE":"34.38525601","STATIONATT":"市控","STATIONTYP":"","TABLEID":2,"REMARK":"","AREACODE":"610100","COUNTYCODE":"610556","AREANAME":"西安市","COUNTYNAME":"经开区","UPDATETIME":"1899-11-30T00:00:00.000Z","RIVERNAME":"皂河","ADDRESS":"入河口（皂河入渭河）"}},
{"type":"Feature","geometry":{"type":"Point","coordinates":[109.09394830000002,34.14956810000001]},"properties":{"OBJECTID":1878,"ID":0,"STATIONCOD":"DA12S610116_2008A","STATIONNAM":"浐河强家坡水质自动监测站","LONGITUDE":"109.0939483","LATITUDE":"34.1495681","STATIONATT":"市控","STATIONTYP":"","TABLEID":2,"REMARK":"","AREACODE":"610100","COUNTYCODE":"610116","AREANAME":"西安市","COUNTYNAME":"长安区","UPDATETIME":"1899-11-30T00:00:00.000Z","RIVERNAME":"浐河","ADDRESS":"县界（长安-灞桥）"}},
{"type":"Feature","geometry":{"type":"Point","coordinates":[109.04428300000001,34.21806600000002]},"properties":{"OBJECTID":1879,"ID":0,"STATIONCOD":"DA12S610111_2001A","STATIONNAM":"浐河高桥水质自动监测站","LONGITUDE":"109.044283","LATITUDE":"34.218066","STATIONATT":"市控","STATIONTYP":"","TABLEID":2,"REMARK":"","AREACODE":"610100","COUNTYCODE":"610116","AREANAME":"西安市","COUNTYNAME":"长安区/灞桥区","UPDATETIME":"1899-11-30T00:00:00.000Z","RIVERNAME":"浐河","ADDRESS":"县界（灞桥-浐灞）"}},
{"type":"Feature","geometry":{"type":"Point","coordinates":[109.1380595,34.25127250999998]},"properties":{"OBJECTID":1880,"ID":0,"STATIONCOD":"DA12S610111_2002A","STATIONNAM":"灞河燎原村水质自动监测站","LONGITUDE":"109.1380595","LATITUDE":"34.25127251","STATIONATT":"市控","STATIONTYP":"","TABLEID":2,"REMARK":"","AREACODE":"610100","COUNTYCODE":"610122","AREANAME":"西安市","COUNTYNAME":"蓝田县/灞桥区","UPDATETIME":"1899-11-30T00:00:00.000Z","RIVERNAME":"灞河","ADDRESS":"县界（蓝田-灞桥）"}},
{"type":"Feature","geometry":{"type":"Point","coordinates":[109.06939599999998,34.306104000000005]},"properties":{"OBJECTID":1881,"ID":0,"STATIONCOD":"DA12S610111_2003A","STATIONNAM":"灞河华清桥水质自动监测站","LONGITUDE":"109.069396","LATITUDE":"34.306104","STATIONATT":"市控","STATIONTYP":"","TABLEID":2,"REMARK":"","AREACODE":"610100","COUNTYCODE":"610111","AREANAME":"西安市","COUNTYNAME":"灞桥区","UPDATETIME":"1899-11-30T00:00:00.000Z","RIVERNAME":"灞河","ADDRESS":"县界（灞桥-浐灞）"}},
{"type":"Feature","geometry":{"type":"Point","coordinates":[108.69788599999998,34.54809499999999]},"properties":{"OBJECTID":1882,"ID":0,"STATIONCOD":"DA08S610423_2001A","STATIONNAM":"泾河桥水质自动监测站","LONGITUDE":"108.697886","LATITUDE":"34.548095","STATIONATT":"市控","STATIONTYP":"","TABLEID":2,"REMARK":"","AREACODE":"610100","COUNTYCODE":"619900","AREANAME":"西安市","COUNTYNAME":"咸阳来水","UPDATETIME":"1899-11-30T00:00:00.000Z","RIVERNAME":"泾河","ADDRESS":"市界（咸阳-西咸）"}},
{"type":"Feature","geometry":{"type":"Point","coordinates":[108.77028200000001,34.50507499999998]},"properties":{"OBJECTID":1883,"ID":0,"STATIONCOD":"DA12S610423_2002A","STATIONNAM":"泾河庙店村水质自动监测站","LONGITUDE":"108.770282","LATITUDE":"34.505075","STATIONATT":"市控","STATIONTYP":"","TABLEID":2,"REMARK":"","AREACODE":"610100","COUNTYCODE":"619901","AREANAME":"西安市","COUNTYNAME":"西咸新区空港新城","UPDATETIME":"1899-11-30T00:00:00.000Z","RIVERNAME":"泾河","ADDRESS":"县界（泾河出空港）"}},
{"type":"Feature","geometry":{"type":"Point","coordinates":[108.875764,34.48728399999999]},"properties":{"OBJECTID":1884,"ID":0,"STATIONCOD":"DA11S610423_2003A","STATIONNAM":"泾河县大堡子村水质自动监测站","LONGITUDE":"108.875764","LATITUDE":"34.487284","STATIONATT":"市控","STATIONTYP":"","TABLEID":2,"REMARK":"","AREACODE":"610100","COUNTYCODE":"619903","AREANAME":"西安市","COUNTYNAME":"西咸新区秦汉新城","UPDATETIME":"1899-11-30T00:00:00.000Z","RIVERNAME":"泾河","ADDRESS":"县界（出秦汉新城）"}},
{"type":"Feature","geometry":{"type":"Point","coordinates":[108.9714937,34.457424919999994]},"properties":{"OBJECTID":1885,"ID":0,"STATIONCOD":"DA09S610117_2001A","STATIONNAM":"泾河西铜路水质自动监测站","LONGITUDE":"108.9714937","LATITUDE":"34.45742492","STATIONATT":"市控","STATIONTYP":"","TABLEID":2,"REMARK":"","AREACODE":"610100","COUNTYCODE":"619900","AREANAME":"西安市","COUNTYNAME":"西咸新区/高陵区","UPDATETIME":"1899-11-30T00:00:00.000Z","RIVERNAME":"泾河","ADDRESS":"市界（西咸-西安）"}},
{"type":"Feature","geometry":{"type":"Point","coordinates":[109.05246949999997,34.46146900000002]},"properties":{"OBJECTID":1886,"ID":0,"STATIONCOD":"DA14S610117_2002A","STATIONNAM":"泾河口堤防交通桥水质自动监测站","LONGITUDE":"109.0524695","LATITUDE":"34.461469","STATIONATT":"市控","STATIONTYP":"","TABLEID":2,"REMARK":"","AREACODE":"610100","COUNTYCODE":"610117","AREANAME":"西安市","COUNTYNAME":"高陵区","UPDATETIME":"1899-11-30T00:00:00.000Z","RIVERNAME":"泾河","ADDRESS":"入河口（泾河入渭河）"}},
{"type":"Feature","geometry":{"type":"Point","coordinates":[109.197249,34.423464000000024]},"properties":{"OBJECTID":1887,"ID":0,"STATIONCOD":"DA14S610115_2002A","STATIONNAM":"临河船王村水质自动监测站","LONGITUDE":"109.197249","LATITUDE":"34.423464","STATIONATT":"市控","STATIONTYP":"","TABLEID":2,"REMARK":"","AREACODE":"610100","COUNTYCODE":"610502","AREANAME":"西安市","COUNTYNAME":"临潼区","UPDATETIME":"1899-11-30T00:00:00.000Z","RIVERNAME":"临河","ADDRESS":"入河口（临河入渭河）"}},
{"type":"Feature","geometry":{"type":"Point","coordinates":[109.35331500000001,34.608653000000004]},"properties":{"OBJECTID":1888,"ID":0,"STATIONCOD":"DA12S610114_2002A","STATIONNAM":"清河老杨村水质自动监测站","LONGITUDE":"109.353315","LATITUDE":"34.608653","STATIONATT":"市控","STATIONTYP":"","TABLEID":2,"REMARK":"","AREACODE":"610100","COUNTYCODE":"610114","AREANAME":"西安市","COUNTYNAME":"阎良区/临潼区","UPDATETIME":"1899-11-30T00:00:00.000Z","RIVERNAME":"清河","ADDRESS":"县界（临潼-阎良）"}},
{"type":"Feature","geometry":{"type":"Point","coordinates":[109.36882700000001,34.61285600000002]},"properties":{"OBJECTID":1889,"ID":0,"STATIONCOD":"DA12S610114_2003A","STATIONNAM":"石川河相桥水质自动监测站","LONGITUDE":"109.368827","LATITUDE":"34.612856","STATIONATT":"市控","STATIONTYP":"","TABLEID":2,"REMARK":"","AREACODE":"610100","COUNTYCODE":"610114","AREANAME":"西安市","COUNTYNAME":"阎良区","UPDATETIME":"1899-11-30T00:00:00.000Z","RIVERNAME":"石川河","ADDRESS":"县界（阎良-临潼）"}},
{"type":"Feature","geometry":{"type":"Point","coordinates":[109.30674699999997,34.54579000000001]},"properties":{"OBJECTID":1890,"ID":0,"STATIONCOD":"DA14S610115_2003A","STATIONNAM":"石川河营仁村水质自动监测站","LONGITUDE":"109.306747","LATITUDE":"34.54579","STATIONATT":"市控","STATIONTYP":"","TABLEID":2,"REMARK":"","AREACODE":"610100","COUNTYCODE":"610502","AREANAME":"西安市","COUNTYNAME":"临潼区","UPDATETIME":"1899-11-30T00:00:00.000Z","RIVERNAME":"石川河","ADDRESS":"入河口（石川河入渭河）"}},
{"type":"Feature","geometry":{"type":"Point","coordinates":[108.77581170000002,34.35789010000002]},"properties":{"OBJECTID":1891,"ID":0,"STATIONCOD":"DA08S610404_2002A","STATIONNAM":"渭河上林桥水质自动监测站","LONGITUDE":"108.7758117","LATITUDE":"34.3578901","STATIONATT":"市控","STATIONTYP":"","TABLEID":2,"REMARK":"","AREACODE":"610100","COUNTYCODE":"619900","AREANAME":"西安市","COUNTYNAME":"西咸新区","UPDATETIME":"1899-11-30T00:00:00.000Z","RIVERNAME":"渭河","ADDRESS":"市界（咸阳-西咸）"}},
{"type":"Feature","geometry":{"type":"Point","coordinates":[108.85374560000002,34.391518099999985]},"properties":{"OBJECTID":1892,"ID":0,"STATIONCOD":"DA09S610404_2003A","STATIONNAM":"渭河横桥水质自动监测站","LONGITUDE":"108.8537456","LATITUDE":"34.3915181","STATIONATT":"市控","STATIONTYP":"","TABLEID":2,"REMARK":"","AREACODE":"610100","COUNTYCODE":"619903","AREANAME":"西安市","COUNTYNAME":"西咸新区秦汉新城","UPDATETIME":"1899-11-30T00:00:00.000Z","RIVERNAME":"渭河","ADDRESS":"市界（西咸-西安）"}},
{"type":"Feature","geometry":{"type":"Point","coordinates":[108.96698229999998,34.253271100000006]},"properties":{"OBJECTID":1893,"ID":0,"STATIONCOD":"DA12S610103_2001A","STATIONNAM":"护城河小北门水质自动监测站","LONGITUDE":"108.9669823","LATITUDE":"34.2532711","STATIONATT":"市控","STATIONTYP":"","TABLEID":2,"REMARK":"","AREACODE":"610100","COUNTYCODE":"610164","AREANAME":"西安市","COUNTYNAME":"曲江新区","UPDATETIME":"1899-11-30T00:00:00.000Z","RIVERNAME":"护城河","ADDRESS":""}},
{"type":"Feature","geometry":{"type":"Point","coordinates":[108.57870680000002,34.12173369999999]},"properties":{"OBJECTID":1894,"ID":0,"STATIONCOD":"DA00R610118_2005A","STATIONNAM":"渼陂湖水质自动监测站","LONGITUDE":"108.5787068","LATITUDE":"34.1217337","STATIONATT":"市控","STATIONTYP":"","TABLEID":2,"REMARK":"","AREACODE":"610100","COUNTYCODE":"610125","AREANAME":"西安市","COUNTYNAME":"鄠邑区","UPDATETIME":"1899-11-30T00:00:00.000Z","RIVERNAME":"渼陂湖","ADDRESS":""}},
{"type":"Feature","geometry":{"type":"Point","coordinates":[108.76598000000001,34.20623999999998]},"properties":{"OBJECTID":1895,"ID":0,"STATIONCOD":"DA00R610116_2009A","STATIONNAM":"昆明池水质自动监测站","LONGITUDE":"108.76598","LATITUDE":"34.20624","STATIONATT":"市控","STATIONTYP":"","TABLEID":2,"REMARK":"","AREACODE":"610100","COUNTYCODE":"619902","AREANAME":"西安市","COUNTYNAME":"西咸新区沣东新城","UPDATETIME":"1899-11-30T00:00:00.000Z","RIVERNAME":"昆明池","ADDRESS":""}},
{"type":"Feature","geometry":{"type":"Point","coordinates":[108.84016279999997,34.35144819999999]},"properties":{"OBJECTID":1896,"ID":0,"STATIONCOD":"DA12S610112_2004A","STATIONNAM":"皂河水质自动监测站","LONGITUDE":"108.8401628","LATITUDE":"34.3514482","STATIONATT":"市控","STATIONTYP":"","TABLEID":2,"REMARK":"","AREACODE":"610100","COUNTYCODE":"610112","AREANAME":"西安市","COUNTYNAME":"未央区","UPDATETIME":"1899-11-30T00:00:00.000Z","RIVERNAME":"皂河","ADDRESS":"县界（未央-经开）"}},
{"type":"Feature","geometry":{"type":"Point","coordinates":[108.84016279999997,34.35144819999999]},"properties":{"OBJECTID":1897,"ID":0,"STATIONCOD":"DA08S610112_2005A","STATIONNAM":"太平河入皂水质自动监测站","LONGITUDE":"108.8401628","LATITUDE":"34.3514482","STATIONATT":"市控","STATIONTYP":"","TABLEID":2,"REMARK":"","AREACODE":"610100","COUNTYCODE":"610112","AREANAME":"西安市","COUNTYNAME":"未央区","UPDATETIME":"1899-11-30T00:00:00.000Z","RIVERNAME":"太平河","ADDRESS":"市界（西咸-西安）"}},
{"type":"Feature","geometry":{"type":"Point","coordinates":[108.94913020000001,34.395673699999975]},"properties":{"OBJECTID":1898,"ID":0,"STATIONCOD":"DA14S610112_2006A","STATIONNAM":"漕运明渠水质自动监测站","LONGITUDE":"108.9491302","LATITUDE":"34.3956737","STATIONATT":"市控","STATIONTYP":"","TABLEID":2,"REMARK":"","AREACODE":"610100","COUNTYCODE":"610556","AREANAME":"西安市","COUNTYNAME":"经开区","UPDATETIME":"1899-11-30T00:00:00.000Z","RIVERNAME":"漕运明渠","ADDRESS":"入河口（漕运明渠入渭河）"}},
{"type":"Feature","geometry":{"type":"Point","coordinates":[108.91863790000002,34.3133009]},"properties":{"OBJECTID":1899,"ID":0,"STATIONCOD":"DA00R610112_2007A","STATIONNAM":"汉城湖水质自动监测站","LONGITUDE":"108.9186379","LATITUDE":"34.3133009","STATIONATT":"市控","STATIONTYP":"","TABLEID":2,"REMARK":"","AREACODE":"610100","COUNTYCODE":"610556","AREANAME":"西安市","COUNTYNAME":"经开区","UPDATETIME":"1899-11-30T00:00:00.000Z","RIVERNAME":"汉城湖","ADDRESS":""}},
{"type":"Feature","geometry":{"type":"Point","coordinates":[109.02895339999998,34.31418719999999]},"properties":{"OBJECTID":1900,"ID":0,"STATIONCOD":"DA14S610112_2008A","STATIONNAM":"浐河浐灞大道水质自动监测站","LONGITUDE":"109.0289534","LATITUDE":"34.3141872","STATIONATT":"市控","STATIONTYP":"","TABLEID":2,"REMARK":"","AREACODE":"610100","COUNTYCODE":"610050","AREANAME":"西安市","COUNTYNAME":"浐灞区","UPDATETIME":"1899-11-30T00:00:00.000Z","RIVERNAME":"浐河","ADDRESS":"入河口（浐河入灞河）"}},
{"type":"Feature","geometry":{"type":"Point","coordinates":[109.01582130000003,34.41731679999998]},"properties":{"OBJECTID":1901,"ID":0,"STATIONCOD":"DA11S610111_2004A","STATIONNAM":"灞河水质自动监测站","LONGITUDE":"109.0158213","LATITUDE":"34.4173168","STATIONATT":"市控","STATIONTYP":"","TABLEID":2,"REMARK":"","AREACODE":"610100","COUNTYCODE":"610070","AREANAME":"西安市","COUNTYNAME":"港务区","UPDATETIME":"1899-11-30T00:00:00.000Z","RIVERNAME":"灞河","ADDRESS":"县界（浐灞-港务）"}},
{"type":"Feature","geometry":{"type":"Point","coordinates":[109.10134299999999,35.419861000000026]},"properties":{"OBJECTID":1902,"ID":0,"STATIONCOD":"DA16R610222_2001A","STATIONNAM":"西河水库","LONGITUDE":"109.101343","LATITUDE":"35.419861","STATIONATT":"市控","STATIONTYP":"","TABLEID":2,"REMARK":"","AREACODE":"610200","COUNTYCODE":"610222","AREANAME":"铜川市","COUNTYNAME":"宜君县","UPDATETIME":"1899-11-30T00:00:00.000Z","RIVERNAME":"湖库","ADDRESS":"水库口"}},
{"type":"Feature","geometry":{"type":"Point","coordinates":[108.91046599999999,35.00689399999999]},"properties":{"OBJECTID":1903,"ID":0,"STATIONCOD":"DA16R610204_2001A","STATIONNAM":"桃曲坡水库","LONGITUDE":"108.910466","LATITUDE":"35.006894","STATIONATT":"市控","STATIONTYP":"","TABLEID":2,"REMARK":"","AREACODE":"610200","COUNTYCODE":"610204","AREANAME":"铜川市","COUNTYNAME":"耀州区","UPDATETIME":"1899-11-30T00:00:00.000Z","RIVERNAME":"湖库","ADDRESS":"水库口"}},
{"type":"Feature","geometry":{"type":"Point","coordinates":[110.119167,39.42694399999999]},"properties":{"OBJECTID":1904,"ID":0,"STATIONCOD":"DA05S610881_2002A","STATIONNAM":"乌兰木伦入境监测站","LONGITUDE":"110.119167","LATITUDE":"39.426944","STATIONATT":"市控","STATIONTYP":"","TABLEID":2,"REMARK":"","AREACODE":"610800","COUNTYCODE":"610821","AREANAME":"榆林市","COUNTYNAME":"神木市","UPDATETIME":"1899-11-30T00:00:00.000Z","RIVERNAME":"乌兰木伦河","ADDRESS":"省界（内蒙—陕西）"}},
{"type":"Feature","geometry":{"type":"Point","coordinates":[109.29416700000002,38.05222199999997]},"properties":{"OBJECTID":1905,"ID":0,"STATIONCOD":"DA14S610803_2001A","STATIONNAM":"横山区芦河汇入无定河口监测站","LONGITUDE":"109.294167","LATITUDE":"38.052222","STATIONATT":"市控","STATIONTYP":"","TABLEID":2,"REMARK":"","AREACODE":"610800","COUNTYCODE":"610823","AREANAME":"榆林市","COUNTYNAME":"横山区","UPDATETIME":"1899-11-30T00:00:00.000Z","RIVERNAME":"芦河","ADDRESS":"入无定河口"}},
{"type":"Feature","geometry":{"type":"Point","coordinates":[110.49277799999999,38.014444000000026]},"properties":{"OBJECTID":1906,"ID":0,"STATIONCOD":"DA14S610828_2001A","STATIONNAM":"佳县佳芦河入黄处监测站","LONGITUDE":"110.492778","LATITUDE":"38.014444","STATIONATT":"市控","STATIONTYP":"","TABLEID":2,"REMARK":"","AREACODE":"610800","COUNTYCODE":"610828","AREANAME":"榆林市","COUNTYNAME":"佳县","UPDATETIME":"1899-11-30T00:00:00.000Z","RIVERNAME":"佳芦河","ADDRESS":"入黄口"}},
{"type":"Feature","geometry":{"type":"Point","coordinates":[111.04888899999997,39.034167000000025]},"properties":{"OBJECTID":1907,"ID":0,"STATIONCOD":"DA14S610822_2001A","STATIONNAM":"府谷县孤山川入黄口监测站","LONGITUDE":"111.048889","LATITUDE":"39.034167","STATIONATT":"市控","STATIONTYP":"","TABLEID":2,"REMARK":"","AREACODE":"610800","COUNTYCODE":"610822","AREANAME":"榆林市","COUNTYNAME":"府谷县","UPDATETIME":"1899-11-30T00:00:00.000Z","RIVERNAME":"孤山川","ADDRESS":"入黄口"}},
{"type":"Feature","geometry":{"type":"Point","coordinates":[108.73829999999998,32.5111]},"properties":{"OBJECTID":1908,"ID":0,"STATIONCOD":"FA15R610902_2001A","STATIONNAM":"汉江新坝水质自动监测站","LONGITUDE":"108.7383","LATITUDE":"32.5111","STATIONATT":"市控","STATIONTYP":"","TABLEID":2,"REMARK":"","AREACODE":"610900","COUNTYCODE":"610902","AREANAME":"安康市","COUNTYNAME":"汉滨","UPDATETIME":"1899-11-30T00:00:00.000Z","RIVERNAME":"汉江","ADDRESS":"入瀛湖口"}},
{"type":"Feature","geometry":{"type":"Point","coordinates":[109.20190000000002,32.78390000000002]},"properties":{"OBJECTID":1909,"ID":0,"STATIONCOD":"FA12S610902_2002A","STATIONNAM":"汉江早阳水质自动监测站","LONGITUDE":"109.2019","LATITUDE":"32.7839","STATIONATT":"市控","STATIONTYP":"","TABLEID":2,"REMARK":"","AREACODE":"610900","COUNTYCODE":"610902","AREANAME":"安康市","COUNTYNAME":"汉滨","UPDATETIME":"1899-11-30T00:00:00.000Z","RIVERNAME":"汉江","ADDRESS":"县界（汉滨-旬阳）"}},
{"type":"Feature","geometry":{"type":"Point","coordinates":[108.11500000000001,33.04194000000001]},"properties":{"OBJECTID":1910,"ID":0,"STATIONCOD":"FA08S610922_2002A","STATIONNAM":"汉江曾溪水质自动监测站","LONGITUDE":"108.115","LATITUDE":"33.04194","STATIONATT":"市控","STATIONTYP":"","TABLEID":2,"REMARK":"","AREACODE":"610900","COUNTYCODE":"610922","AREANAME":"安康市","COUNTYNAME":"石泉","UPDATETIME":"1899-11-30T00:00:00.000Z","RIVERNAME":"汉江","ADDRESS":"市界（汉中-安康）"}},
{"type":"Feature","geometry":{"type":"Point","coordinates":[108.41888899999998,32.72750000000002]},"properties":{"OBJECTID":1911,"ID":0,"STATIONCOD":"FA11S610924_2001A","STATIONNAM":"汉江汉王水质自动监测站","LONGITUDE":"108.418889","LATITUDE":"32.7275","STATIONATT":"市控","STATIONTYP":"","TABLEID":2,"REMARK":"","AREACODE":"610900","COUNTYCODE":"610924","AREANAME":"安康市","COUNTYNAME":"紫阳","UPDATETIME":"1899-11-30T00:00:00.000Z","RIVERNAME":"汉江","ADDRESS":"县界（汉阴-紫阳）"}},
{"type":"Feature","geometry":{"type":"Point","coordinates":[109.34030000000001,32.830600000000004]},"properties":{"OBJECTID":1912,"ID":0,"STATIONCOD":"FA14S610928_2003A","STATIONNAM":"旬河水质自动监测站","LONGITUDE":"109.3403","LATITUDE":"32.8306","STATIONATT":"市控","STATIONTYP":"","TABLEID":2,"REMARK":"","AREACODE":"610900","COUNTYCODE":"610928","AREANAME":"安康市","COUNTYNAME":"旬阳","UPDATETIME":"1899-11-30T00:00:00.000Z","RIVERNAME":"旬河","ADDRESS":"旬河入汉口"}},
{"type":"Feature","geometry":{"type":"Point","coordinates":[109.79109999999997,32.879399999999976]},"properties":{"OBJECTID":1913,"ID":0,"STATIONCOD":"FA12S610928_2004A","STATIONNAM":"汉江兰滩水质自动监测站","LONGITUDE":"109.7911","LATITUDE":"32.8794","STATIONATT":"市控","STATIONTYP":"","TABLEID":2,"REMARK":"","AREACODE":"610900","COUNTYCODE":"610928","AREANAME":"安康市","COUNTYNAME":"旬阳","UPDATETIME":"1899-11-30T00:00:00.000Z","RIVERNAME":"汉江","ADDRESS":"县界（旬阳-白河）"}},
{"type":"Feature","geometry":{"type":"Point","coordinates":[110.50080000000003,33.51920000000001]},"properties":{"OBJECTID":1914,"ID":0,"STATIONCOD":"FA12S611022_2001A","STATIONNAM":"丹江雷家洞","LONGITUDE":"110.5008","LATITUDE":"33.5192","STATIONATT":"市控","STATIONTYP":"","TABLEID":2,"REMARK":"","AREACODE":"611000","COUNTYCODE":"611022","AREANAME":"商洛市","COUNTYNAME":"丹凤县","UPDATETIME":"1899-11-30T00:00:00.000Z","RIVERNAME":"丹江","ADDRESS":"县界（丹凤-商南）"}},
{"type":"Feature","geometry":{"type":"Point","coordinates":[110.30610000000001,33.45190000000002]},"properties":{"OBJECTID":1915,"ID":0,"STATIONCOD":"FA12S611024_2001A","STATIONNAM":"银花河湘子店","LONGITUDE":"110.3061","LATITUDE":"33.4519","STATIONATT":"市控","STATIONTYP":"","TABLEID":2,"REMARK":"","AREACODE":"611000","COUNTYCODE":"611024","AREANAME":"商洛市","COUNTYNAME":"山阳县","UPDATETIME":"1899-11-30T00:00:00.000Z","RIVERNAME":"银花河","ADDRESS":"县界（山阳-丹凤）"}},
{"type":"Feature","geometry":{"type":"Point","coordinates":[108.679438,34.279709000000025]},"properties":{"OBJECTID":1916,"ID":0,"STATIONCOD":"DA08S610116_2001A","STATIONNAM":"西安新河水质自动监测站","LONGITUDE":"108.679438","LATITUDE":"34.279709","STATIONATT":"省控","STATIONTYP":"","TABLEID":2,"REMARK":"","AREACODE":"610100","COUNTYCODE":"610116","AREANAME":"西安市","COUNTYNAME":"长安区","UPDATETIME":"1899-11-30T00:00:00.000Z","RIVERNAME":"新河","ADDRESS":"市界（西咸-西安）"}},
{"type":"Feature","geometry":{"type":"Point","coordinates":[108.21749699999998,34.06074699999999]},"properties":{"OBJECTID":1917,"ID":0,"STATIONCOD":"DA16S610124_2001A","STATIONNAM":"西安黑河水质自动监测站","LONGITUDE":"108.217497","LATITUDE":"34.060747","STATIONATT":"省控","STATIONTYP":"","TABLEID":2,"REMARK":"","AREACODE":"610100","COUNTYCODE":"610124","AREANAME":"西安市","COUNTYNAME":"周至县","UPDATETIME":"1899-11-30T00:00:00.000Z","RIVERNAME":"黑河","ADDRESS":"水库口"}},
{"type":"Feature","geometry":{"type":"Point","coordinates":[108.85039,34.36707000000001]},"properties":{"OBJECTID":1918,"ID":0,"STATIONCOD":"DA14S610112_2001A","STATIONNAM":"西安皂河水质自动监测站","LONGITUDE":"108.85039","LATITUDE":"34.36707","STATIONATT":"省控","STATIONTYP":"","TABLEID":2,"REMARK":"","AREACODE":"610100","COUNTYCODE":"610112","AREANAME":"西安市","COUNTYNAME":"未央区","UPDATETIME":"1899-11-30T00:00:00.000Z","RIVERNAME":"皂河","ADDRESS":"入渭河口"}},
{"type":"Feature","geometry":{"type":"Point","coordinates":[108.60937899999999,34.23545300000001]},"properties":{"OBJECTID":1919,"ID":0,"STATIONCOD":"DA14S610118_2001A","STATIONNAM":"西安涝河水质自动监测站","LONGITUDE":"108.609379","LATITUDE":"34.235453","STATIONATT":"省控","STATIONTYP":"","TABLEID":2,"REMARK":"","AREACODE":"610100","COUNTYCODE":"610125","AREANAME":"西安市","COUNTYNAME":"户县","UPDATETIME":"1899-11-30T00:00:00.000Z","RIVERNAME":"涝河","ADDRESS":"入渭河口"}},
{"type":"Feature","geometry":{"type":"Point","coordinates":[109.206932,34.426255000000026]},"properties":{"OBJECTID":1920,"ID":0,"STATIONCOD":"DA14S610115_2001A","STATIONNAM":"临河临潼水质自动监测站","LONGITUDE":"109.206932","LATITUDE":"34.426255","STATIONATT":"省控","STATIONTYP":"","TABLEID":2,"REMARK":"","AREACODE":"610100","COUNTYCODE":"610502","AREANAME":"西安市","COUNTYNAME":"临潼区","UPDATETIME":"1899-11-30T00:00:00.000Z","RIVERNAME":"临河","ADDRESS":"入渭河口"}},
{"type":"Feature","geometry":{"type":"Point","coordinates":[107.75437399999998,34.307345]},"properties":{"OBJECTID":1921,"ID":0,"STATIONCOD":"DA14S610326_2001A","STATIONNAM":"渭河宝鸡魏家堡水质自动监测站","LONGITUDE":"107.754374","LATITUDE":"34.307345","STATIONATT":"省控","STATIONTYP":"","TABLEID":2,"REMARK":"","AREACODE":"610300","COUNTYCODE":"610326","AREANAME":"宝鸡市","COUNTYNAME":"眉县","UPDATETIME":"1899-11-30T00:00:00.000Z","RIVERNAME":"渭河","ADDRESS":"市界（宝鸡市-杨凌区）"}},
{"type":"Feature","geometry":{"type":"Point","coordinates":[110.27518099999998,36.499032]},"properties":{"OBJECTID":1949,"ID":0,"STATIONCOD":"ZS6106210001","STATIONNAM":"延河水质自动监测站","LONGITUDE":"110.275181","LATITUDE":"36.499032","STATIONATT":"省控","STATIONTYP":"","TABLEID":3,"REMARK":"","AREACODE":"610600","COUNTYCODE":"610621","AREANAME":"延安市","COUNTYNAME":"延长县","UPDATETIME":"1899-11-30T00:00:00.000Z","RIVERNAME":"延河","ADDRESS":"入黄河口"}},
{"type":"Feature","geometry":{"type":"Point","coordinates":[110.24295699999999,36.83982800000001]},"properties":{"OBJECTID":1950,"ID":0,"STATIONCOD":"ZS6106220001","STATIONNAM":"秀延河水质自动监测站","LONGITUDE":"110.242957","LATITUDE":"36.839828","STATIONATT":"省控","STATIONTYP":"","TABLEID":3,"REMARK":"","AREACODE":"610600","COUNTYCODE":"610622","AREANAME":"延安市","COUNTYNAME":"延川县","UPDATETIME":"1899-11-30T00:00:00.000Z","RIVERNAME":"秀延河","ADDRESS":"入黄河口"}},
{"type":"Feature","geometry":{"type":"Point","coordinates":[108.8303947,36.475393800000006]},"properties":{"OBJECTID":1951,"ID":0,"STATIONCOD":"88888884000008","STATIONNAM":"志丹县马老庄站","LONGITUDE":"108.8303947","LATITUDE":"36.4753938","STATIONATT":"市控","STATIONTYP":"","TABLEID":3,"REMARK":"","AREACODE":"610600","COUNTYCODE":"610625","AREANAME":"延安市","COUNTYNAME":"志丹县","UPDATETIME":"1899-11-30T00:00:00.000Z","RIVERNAME":"北洛河","ADDRESS":"志丹县甘志路"}},
{"type":"Feature","geometry":{"type":"Point","coordinates":[109.34372660000002,35.853161399999976]},"properties":{"OBJECTID":1952,"ID":0,"STATIONCOD":"88888884000001","STATIONNAM":"富县陈家洼站","LONGITUDE":"109.3437266","LATITUDE":"35.8531614","STATIONATT":"市控","STATIONTYP":"","TABLEID":3,"REMARK":"","AREACODE":"610600","COUNTYCODE":"610628","AREANAME":"延安市","COUNTYNAME":"富县","UPDATETIME":"1899-11-30T00:00:00.000Z","RIVERNAME":"北洛河","ADDRESS":"陕西省延安市富县"}},
{"type":"Feature","geometry":{"type":"Point","coordinates":[109.8331225,36.70880749999998]},"properties":{"OBJECTID":1953,"ID":0,"STATIONCOD":"88888884000002","STATIONNAM":"宝塔区杨家湾站","LONGITUDE":"109.8331225","LATITUDE":"36.7088075","STATIONATT":"市控","STATIONTYP":"","TABLEID":3,"REMARK":"","AREACODE":"610600","COUNTYCODE":"610602","AREANAME":"延安市","COUNTYNAME":"宝塔区","UPDATETIME":"1899-11-30T00:00:00.000Z","RIVERNAME":"延河","ADDRESS":"205省道旧(延安市宝塔区)"}},
{"type":"Feature","geometry":{"type":"Point","coordinates":[110.11362250000002,36.294370000000015]},"properties":{"OBJECTID":1954,"ID":0,"STATIONCOD":"88888884000003","STATIONNAM":"宝塔区新窑科站","LONGITUDE":"110.1136225","LATITUDE":"36.29437","STATIONATT":"市控","STATIONTYP":"","TABLEID":3,"REMARK":"","AREACODE":"610600","COUNTYCODE":"610630","AREANAME":"延安市","COUNTYNAME":"宜川县","UPDATETIME":"1899-11-30T00:00:00.000Z","RIVERNAME":"云岩河","ADDRESS":"宝塔区榆蓝高速"}},
{"type":"Feature","geometry":{"type":"Point","coordinates":[109.69882419999999,35.505531099999985]},"properties":{"OBJECTID":1955,"ID":0,"STATIONCOD":"88888884000004","STATIONNAM":"黄龙县界子河站","LONGITUDE":"109.6988242","LATITUDE":"35.5055311","STATIONATT":"市控","STATIONTYP":"","TABLEID":3,"REMARK":"","AREACODE":"610600","COUNTYCODE":"610631","AREANAME":"延安市","COUNTYNAME":"黄龙县","UPDATETIME":"1899-11-30T00:00:00.000Z","RIVERNAME":"石堡川河","ADDRESS":"黄龙县渭蒲高速公路"}},
{"type":"Feature","geometry":{"type":"Point","coordinates":[109.36750740000002,35.59352469999999]},"properties":{"OBJECTID":1956,"ID":0,"STATIONCOD":"88888884000005","STATIONNAM":"洛川县枣园站","LONGITUDE":"109.3675074","LATITUDE":"35.5935247","STATIONATT":"市控","STATIONTYP":"","TABLEID":3,"REMARK":"","AREACODE":"610600","COUNTYCODE":"610632","AREANAME":"延安市","COUNTYNAME":"黄陵县","UPDATETIME":"1899-11-30T00:00:00.000Z","RIVERNAME":"北洛河","ADDRESS":"洛川县南车站连接线"}},
{"type":"Feature","geometry":{"type":"Point","coordinates":[108.30050829999999,36.78336039999999]},"properties":{"OBJECTID":1957,"ID":0,"STATIONCOD":"88888884000006","STATIONNAM":"吴起县金汤站","LONGITUDE":"108.3005083","LATITUDE":"36.7833604","STATIONATT":"市控","STATIONTYP":"","TABLEID":3,"REMARK":"","AREACODE":"610600","COUNTYCODE":"610626","AREANAME":"延安市","COUNTYNAME":"吴起县","UPDATETIME":"1899-11-30T00:00:00.000Z","RIVERNAME":"北洛河","ADDRESS":"吴起县志吴路"}},
{"type":"Feature","geometry":{"type":"Point","coordinates":[108.7443012,36.600158799999974]},"properties":{"OBJECTID":1958,"ID":0,"STATIONCOD":"88888884000007","STATIONNAM":"志丹县川口站","LONGITUDE":"108.7443012","LATITUDE":"36.6001588","STATIONATT":"市控","STATIONTYP":"","TABLEID":3,"REMARK":"","AREACODE":"610600","COUNTYCODE":"610625","AREANAME":"延安市","COUNTYNAME":"志丹县","UPDATETIME":"1899-11-30T00:00:00.000Z","RIVERNAME":"周河","ADDRESS":"志丹县甘志路"}},
{"type":"Feature","geometry":{"type":"Point","coordinates":[108.75705090000002,36.0996935]},"properties":{"OBJECTID":1959,"ID":0,"STATIONCOD":"88888884000009","STATIONNAM":"富县张家湾站","LONGITUDE":"108.7570509","LATITUDE":"36.0996935","STATIONATT":"市控","STATIONTYP":"","TABLEID":3,"REMARK":"","AREACODE":"610600","COUNTYCODE":"610628","AREANAME":"延安市","COUNTYNAME":"富县","UPDATETIME":"1899-11-30T00:00:00.000Z","RIVERNAME":"葫芦河","ADDRESS":"富县五里铺"}},
{"type":"Feature","geometry":{"type":"Point","coordinates":[109.471451,36.57521600000001]},"properties":{"OBJECTID":1960,"ID":0,"STATIONCOD":"88888884000010","STATIONNAM":"万花站","LONGITUDE":"109.471451","LATITUDE":"36.575216","STATIONATT":"市控","STATIONTYP":"","TABLEID":3,"REMARK":"","AREACODE":"610600","COUNTYCODE":"610602","AREANAME":"延安市","COUNTYNAME":"宝塔区","UPDATETIME":"1899-11-30T00:00:00.000Z","RIVERNAME":"延河","ADDRESS":"延安杜甫川小学(宝塔区光华路35号)"}}
]}